icid,設備編號,路口名稱,群組,經度,緯度,三合一報表連結（網址）
I0SSA,S0SSA10,老泉街-防汛道路,GA0318,121.56047,24.977261,https://www.ttcx.dot.gov.taipei/cpt/api/TimingPlan/pdf/S0SSA10
I0YPB,S0YPB10,木新路三段-寶橋路,GN0313,121.553864,24.979865,https://www.ttcx.dot.gov.taipei/cpt/api/TimingPlan/pdf/S0YPB10
I0ZPQ,S0ZPQ10,木新路三段-一壽街,GN0313,121.556383,24.980587,https://www.ttcx.dot.gov.taipei/cpt/api/TimingPlan/pdf/S0ZPQ10
I0ZPV,S0ZPV10,木新路三段310巷,GN0313,121.557179,24.980808,https://www.ttcx.dot.gov.taipei/cpt/api/TimingPlan/pdf/S0ZPV10
I0ZTB,S0ZTB10,保儀路13巷-26巷,GA0101,121.565707,24.982641,https://www.ttcx.dot.gov.taipei/cpt/api/TimingPlan/pdf/S0ZTB10
I0ZTJ,S0ZTJ10,恆光街-恆光橋,GA0318,121.566999,24.982491,https://www.ttcx.dot.gov.taipei/cpt/api/TimingPlan/pdf/S0ZTJ10
I15QC,S15QC10,木新路三段278巷,GN0313,121.55913,24.981299,https://www.ttcx.dot.gov.taipei/cpt/api/TimingPlan/pdf/S15QC10
I16QG,S16QG10,木新路三段200號,GN0313,121.559963,24.981504,https://www.ttcx.dot.gov.taipei/cpt/api/TimingPlan/pdf/S16QG10
I17P9,S17P910,辛亥路七段76巷,GN0313,121.55373,24.981953,https://www.ttcx.dot.gov.taipei/cpt/api/TimingPlan/pdf/S17P910
I17QN,S17QN10,"木新路三段155,172巷",GN0313,121.561094,24.98177,https://www.ttcx.dot.gov.taipei/cpt/api/TimingPlan/pdf/S17QN10
I18QX,S18QX10,興隆路四段木新路三段,GC0157,121.562541,24.982099,https://www.ttcx.dot.gov.taipei/cpt/api/TimingPlan/pdf/S18QX10
I1ARC,S1ARC10,木新路三段50巷,GA0100,121.563563,24.982357,https://www.ttcx.dot.gov.taipei/cpt/api/TimingPlan/pdf/S1ARC10
I1ARI,S1ARI10,木新路二段-保儀路,GA0318,121.565298,24.982756,https://www.ttcx.dot.gov.taipei/cpt/api/TimingPlan/pdf/S1ARI10
I1CPB,S1CPB10,辛亥路七段-忠順街一段,GN0313,121.554028,24.983214,https://www.ttcx.dot.gov.taipei/cpt/api/TimingPlan/pdf/S1CPB10
I1CPQ,S1CPQ10,忠順街一段-木新路三段310巷,GC0052,121.556306,24.983305,https://www.ttcx.dot.gov.taipei/cpt/api/TimingPlan/pdf/S1CPQ10
I1CRT,S1CRT10,木新路二段-恆光街,GA0318,121.566736,24.983256,https://www.ttcx.dot.gov.taipei/cpt/api/TimingPlan/pdf/S1CRT10
I1CSC,S1CSC10,木新路二段161巷12弄,GA0318,121.569147,24.983124,https://www.ttcx.dot.gov.taipei/cpt/api/TimingPlan/pdf/S1CSC10
I1DNP,S1DNP10,"木柵路一段58,89巷",GN0032,121.547309,24.986949,https://www.ttcx.dot.gov.taipei/cpt/api/TimingPlan/pdf/S1DNP10
I1ESA,S1ESA10,木新路二段161巷,GA0318,121.56875,24.983953,https://www.ttcx.dot.gov.taipei/cpt/api/TimingPlan/pdf/S1ESA10
I1EUF,S1EUF10,指南路二段-政大一街,GN0001,121.57947,24.983845,https://www.ttcx.dot.gov.taipei/cpt/api/TimingPlan/pdf/S1EUF10
I1FQB,S1FQB10,忠順街一段26巷,GA0100,121.559143,24.98408,https://www.ttcx.dot.gov.taipei/cpt/api/TimingPlan/pdf/S1FQB10
I1FQR,S1FQR10,辛亥路七段20巷,GN0313,121.553344,24.986172,https://www.ttcx.dot.gov.taipei/cpt/api/TimingPlan/pdf/S1FQR10
I1GQS,S1GQS10,興隆路四段-忠順街二段,GA0100,121.56169,24.984485,https://www.ttcx.dot.gov.taipei/cpt/api/TimingPlan/pdf/S1GQS10
I1GQT,S1GQT10,西安街一段-文林北路94巷,GN0215,121.561857,24.984006,https://www.ttcx.dot.gov.taipei/cpt/api/TimingPlan/pdf/S1GQT10
I1HPC,S1HPC10,辛亥路七段-光輝路50巷,GN0313,121.554194,24.984829,https://www.ttcx.dot.gov.taipei/cpt/api/TimingPlan/pdf/S1HPC10
I1HRS,S1HRS10,保儀路-忠順街二段,GA0099,121.566783,24.984746,https://www.ttcx.dot.gov.taipei/cpt/api/TimingPlan/pdf/S1HRS10
I1IUI,S1IUI10,指南路三段2巷,GC0182,121.580027,24.98502,https://www.ttcx.dot.gov.taipei/cpt/api/TimingPlan/pdf/S1IUI10
I1KRW,S1KRW10,保儀路-永安街22巷,GA0099,121.567391,24.985556,https://www.ttcx.dot.gov.taipei/cpt/api/TimingPlan/pdf/S1KRW10
I1KSL,S1KSL10,木新路二段-永安街,GA0317,121.570601,24.985643,https://www.ttcx.dot.gov.taipei/cpt/api/TimingPlan/pdf/S1KSL10
I1KVJ,S1KVJ10,指南路二段-147巷,GC0116,121.576954,24.987419,https://www.ttcx.dot.gov.taipei/cpt/api/TimingPlan/pdf/S1KVJ10
I1LRR,S1LRR10,木柵路三段66巷-台灣戲曲學校,GN0110,121.566481,24.985957,https://www.ttcx.dot.gov.taipei/cpt/api/TimingPlan/pdf/S1LRR10
I1MPY,S1MPY10,下崙路-光輝路71巷,GS0013,121.557657,24.986198,https://www.ttcx.dot.gov.taipei/cpt/api/TimingPlan/pdf/S1MPY10
I1MS5,S1MS510,萬美街一段-萬和街,GC0147,121.567919,24.986258,https://www.ttcx.dot.gov.taipei/cpt/api/TimingPlan/pdf/S1MS510
I1NMM,S1NMM10,木柵路一段-和興路,GN0032,121.545971,24.986729,https://www.ttcx.dot.gov.taipei/cpt/api/TimingPlan/pdf/S1NMM10
I1NP5,S1NP510,辛亥路七段26巷,GN0313,121.553141,24.98658,https://www.ttcx.dot.gov.taipei/cpt/api/TimingPlan/pdf/S1NP510
I1NQM,S1NQM10,興隆路四段-下崙路,GA0010,121.560908,24.986628,https://www.ttcx.dot.gov.taipei/cpt/api/TimingPlan/pdf/S1NQM10
I1NTY,S1NTY10,木新路一段-指南路一段51巷,GA0317,121.56938,24.988444,https://www.ttcx.dot.gov.taipei/cpt/api/TimingPlan/pdf/S1NTY10
I1PMI,S1PMI10,木柵路一段-萬善橋頭(景美溪橋),GN0032,121.545426,24.986704,https://www.ttcx.dot.gov.taipei/cpt/api/TimingPlan/pdf/S1PMI10
I1PMN,S1PMN10,木柵路一段-試院路(西),GN0032,121.549272,24.987294,https://www.ttcx.dot.gov.taipei/cpt/api/TimingPlan/pdf/S1PMN10
I1PQY,S1PQY10,興隆路四段109巷32弄,GN0110,121.562651,24.98673,https://www.ttcx.dot.gov.taipei/cpt/api/TimingPlan/pdf/S1PQY10
I1PRN,S1PRN10,木柵路三段48巷-興隆路四段109巷,GN0110,121.566082,24.987014,https://www.ttcx.dot.gov.taipei/cpt/api/TimingPlan/pdf/S1PRN10
I1PVN,S1PVN10,萬壽路36號(指南山莊),GC0114,121.577612,24.988766,https://www.ttcx.dot.gov.taipei/cpt/api/TimingPlan/pdf/S1PVN10
I1QN6,S1QN610,木柵路四段111巷,GA0319,121.573537,24.997242,https://www.ttcx.dot.gov.taipei/cpt/api/TimingPlan/pdf/S1QN610
I1QQW,S1QQW10,興隆路四段109巷92弄,GN0110,121.562436,24.987236,https://www.ttcx.dot.gov.taipei/cpt/api/TimingPlan/pdf/S1QQW10
I1RNH,S1RNH10,木柵路一段-試院路(東),GN0032,121.550164,24.987454,https://www.ttcx.dot.gov.taipei/cpt/api/TimingPlan/pdf/S1RNH10
I1RNP,S1RNP10,木柵路一段191巷,GN0032,121.551324,24.987657,https://www.ttcx.dot.gov.taipei/cpt/api/TimingPlan/pdf/S1RNP10
I1RUV,S1RUV10,新光路一段32巷,GA0317,121.573742,24.989332,https://www.ttcx.dot.gov.taipei/cpt/api/TimingPlan/pdf/S1RUV10
I1SNV,S1SNV10,木柵路一段辛亥路六段,GN0032,121.552345,24.987798,https://www.ttcx.dot.gov.taipei/cpt/api/TimingPlan/pdf/S1SNV10
I1SQK,S1SQK10,"興隆路四段46,105巷",GA0010,121.560556,24.98764,https://www.ttcx.dot.gov.taipei/cpt/api/TimingPlan/pdf/S1SQK10
I1SS9,S1SS910,指南路一段-保儀路,GA0317,121.568599,24.987628,https://www.ttcx.dot.gov.taipei/cpt/api/TimingPlan/pdf/S1SS910
I1SSL,S1SSL10,木新路一段-指南路一段,GA0317,121.57066,24.987756,https://www.ttcx.dot.gov.taipei/cpt/api/TimingPlan/pdf/S1SSL10
I1STM,S1STM10,指南路二段-政治大學,GC0215,121.575672,24.987655,https://www.ttcx.dot.gov.taipei/cpt/api/TimingPlan/pdf/S1STM10
I1STN,S1STN10,指南路二段-萬壽路(單閃),GC0116,121.57585,24.987609,https://www.ttcx.dot.gov.taipei/cpt/api/TimingPlan/pdf/S1STN10
I1TP9,S1TP910,木柵路二段-富山路,GA0010,121.553792,24.988036,https://www.ttcx.dot.gov.taipei/cpt/api/TimingPlan/pdf/S1TP910
I1TPH,S1TPH10,木柵路二段-光輝路,GC0003,121.55512,24.988175,https://www.ttcx.dot.gov.taipei/cpt/api/TimingPlan/pdf/S1TPH10
I1TT9,S1TT910,指南路二段-新光路一段,GA0317,121.573683,24.988087,https://www.ttcx.dot.gov.taipei/cpt/api/TimingPlan/pdf/S1TT910
I1ULD,S1ULD10,羅斯福六段-滬江中學,GA0044,121.539628,24.988404,https://www.ttcx.dot.gov.taipei/cpt/api/TimingPlan/pdf/S1ULD10
I1ULF,S1ULF10,羅斯福六段-北新橋下,GA0044,121.539868,24.988434,https://www.ttcx.dot.gov.taipei/cpt/api/TimingPlan/pdf/S1ULF10
I1ULK,S1ULK10,木柵路一段-景文街(舊橋),GA0099,121.540857,24.988381,https://www.ttcx.dot.gov.taipei/cpt/api/TimingPlan/pdf/S1ULK10
I1ULT,S1ULT10,木柵路一段-景興路,GA0099,121.542184,24.988286,https://www.ttcx.dot.gov.taipei/cpt/api/TimingPlan/pdf/S1ULT10
I1UMA,S1UMA10,木柵路一段世新專校,GA0099,121.544017,24.988469,https://www.ttcx.dot.gov.taipei/cpt/api/TimingPlan/pdf/S1UMA10
I1UNV,S1UNV10,辛亥路六段86巷,GA0010,121.552298,24.988382,https://www.ttcx.dot.gov.taipei/cpt/api/TimingPlan/pdf/S1UNV10
I1UPQ,S1UPQ10,木柵路二段中山國小,GC0003,121.556369,24.988469,https://www.ttcx.dot.gov.taipei/cpt/api/TimingPlan/pdf/S1UPQ10
I1UQU,S1UQU10,木柵路二段138巷-興隆路四段105巷,GN0110,121.561988,24.988312,https://www.ttcx.dot.gov.taipei/cpt/api/TimingPlan/pdf/S1UQU10
I1URI,S1URI10,木柵路三段48巷,GA0101,121.565264,24.988372,https://www.ttcx.dot.gov.taipei/cpt/api/TimingPlan/pdf/S1URI10
I1VQ7,S1VQ710,木柵路二段2巷,GA0010,121.558431,24.988732,https://www.ttcx.dot.gov.taipei/cpt/api/TimingPlan/pdf/S1VQ710
I1VQB,S1VQB10,木柵路二段54巷,GA0010,121.559045,24.98872,https://www.ttcx.dot.gov.taipei/cpt/api/TimingPlan/pdf/S1VQB10
I1VQH,S1VQH10,木柵路二段-興隆路四段,GS0045,121.560154,24.988725,https://www.ttcx.dot.gov.taipei/cpt/api/TimingPlan/pdf/S1VQH10
I1VQS,S1VQS10,木柵路二段109巷,GA0010,121.561769,24.988828,https://www.ttcx.dot.gov.taipei/cpt/api/TimingPlan/pdf/S1VQS10
I1VRX,S1VRX10,木柵路三段102巷,GA0101,121.567453,24.98869,https://www.ttcx.dot.gov.taipei/cpt/api/TimingPlan/pdf/S1VRX10
I1VTV,S1VTV10,秀明路二段-萬壽路,GC0114,121.577013,24.988643,https://www.ttcx.dot.gov.taipei/cpt/api/TimingPlan/pdf/S1VTV10
I1WR6,S1WR610,木柵路二段-秀明路一段,GA0010,121.563157,24.989039,https://www.ttcx.dot.gov.taipei/cpt/api/TimingPlan/pdf/S1WR610
I1WS9,S1WS910,木柵路三段-保儀路,GA0101,121.568615,24.98891,https://www.ttcx.dot.gov.taipei/cpt/api/TimingPlan/pdf/S1WS910
I1YLL,S1YLL10,景文街-景美國小,GC0141,121.540922,24.989708,https://www.ttcx.dot.gov.taipei/cpt/api/TimingPlan/pdf/S1YLL10
I1YQF,S1YQF10,興隆路四段57巷,GA0312,121.559801,24.989467,https://www.ttcx.dot.gov.taipei/cpt/api/TimingPlan/pdf/S1YQF10
I1ZRP,S1ZRP10,秀明路一段-久康街,GA0101,121.566103,24.989813,https://www.ttcx.dot.gov.taipei/cpt/api/TimingPlan/pdf/S1ZRP10
I1ZV6,S1ZV610,秀明路二段7巷,GA0320,121.574877,24.991853,https://www.ttcx.dot.gov.taipei/cpt/api/TimingPlan/pdf/S1ZV610
I25LE,S25LE10,羅斯福六段-育英街,GA0044,121.539745,24.990209,https://www.ttcx.dot.gov.taipei/cpt/api/TimingPlan/pdf/S25LE10
I26QC,S26QC10,興隆路四段-再興中學,GC0050,121.559232,24.990552,https://www.ttcx.dot.gov.taipei/cpt/api/TimingPlan/pdf/S26QC10
I26RR,S26RR10,秀明路一段103巷,GA0101,121.566453,24.990597,https://www.ttcx.dot.gov.taipei/cpt/api/TimingPlan/pdf/S26RR10
I26SL,S26SL10,木柵路三段-木柵國小,GC0140,121.570643,24.990473,https://www.ttcx.dot.gov.taipei/cpt/api/TimingPlan/pdf/S26SL10
I27RS,S27RS10,秀明路一段-久康街135巷,GA0101,121.566652,24.990741,https://www.ttcx.dot.gov.taipei/cpt/api/TimingPlan/pdf/S27RS10
I27RU,S27RU10,秀明路一段191巷,GA0323,121.56695,24.990896,https://www.ttcx.dot.gov.taipei/cpt/api/TimingPlan/pdf/S27RU10
I27SN,S27SN10,木柵路三段-木新路一段,GA0319,121.570931,24.990707,https://www.ttcx.dot.gov.taipei/cpt/api/TimingPlan/pdf/S27SN10
I27TA,S27TA10,新光路一段159巷,GA0320,121.573695,24.99084,https://www.ttcx.dot.gov.taipei/cpt/api/TimingPlan/pdf/S27TA10
I28LG,S28LG10,羅斯福六段-車前路,GA0044,121.540156,24.991237,https://www.ttcx.dot.gov.taipei/cpt/api/TimingPlan/pdf/S28LG10
I29S7,S29S710,秀明路一段185巷,GA0101,121.568334,24.991407,https://www.ttcx.dot.gov.taipei/cpt/api/TimingPlan/pdf/S29S710
I2ASP,S2ASP10,木柵路四段-秀明路二段(萬壽橋),GA0319,121.571124,24.991654,https://www.ttcx.dot.gov.taipei/cpt/api/TimingPlan/pdf/S2ASP10
I2AT9,S2AT910,秀明路二段-新光路一段,GA0320,121.573669,24.991617,https://www.ttcx.dot.gov.taipei/cpt/api/TimingPlan/pdf/S2AT910
I2ATF,S2ATF10,秀明路二段112巷,GC0114,121.574767,24.991261,https://www.ttcx.dot.gov.taipei/cpt/api/TimingPlan/pdf/S2ATF10
I2BLI,S2BLI10,羅斯福六段-萬慶街,GA0044,121.540536,24.99212,https://www.ttcx.dot.gov.taipei/cpt/api/TimingPlan/pdf/S2BLI10
I2BQ9,S2BQ910,興隆路四段-1巷,GA0312,121.55878,24.991529,https://www.ttcx.dot.gov.taipei/cpt/api/TimingPlan/pdf/S2BQ910
I2CUG,S2CUG10,木柵路四段-33巷,GA0319,121.571587,24.994007,https://www.ttcx.dot.gov.taipei/cpt/api/TimingPlan/pdf/S2CUG10
I2DMB,S2DMB10,景文街-車前路,GA0099,121.541285,24.991251,https://www.ttcx.dot.gov.taipei/cpt/api/TimingPlan/pdf/S2DMB10
I2DQ9,S2DQ910,"興隆路三段255,304巷",GA0312,121.558775,24.99264,https://www.ttcx.dot.gov.taipei/cpt/api/TimingPlan/pdf/S2DQ910
I2ELC,S2ELC10,景中街-景後街,GN0311,121.543332,24.992742,https://www.ttcx.dot.gov.taipei/cpt/api/TimingPlan/pdf/S2ELC10
I2ELL,S2ELL10,羅斯福六段-景中街,GA0044,121.540827,24.992887,https://www.ttcx.dot.gov.taipei/cpt/api/TimingPlan/pdf/S2ELL10
I2ELN,S2ELN10,景文街-景中街,GA0044,121.541312,24.992903,https://www.ttcx.dot.gov.taipei/cpt/api/TimingPlan/pdf/S2ELN10
I2FNM,S2FNM10,景興路46巷-三福街4巷,GC0019,121.542862,24.995025,https://www.ttcx.dot.gov.taipei/cpt/api/TimingPlan/pdf/S2FNM10
I2GQB,S2GQB10,興隆路三段229巷,GA0312,121.559136,24.993523,https://www.ttcx.dot.gov.taipei/cpt/api/TimingPlan/pdf/S2GQB10
I2HM8,S2HM810,華齡街-後港街134巷,GC0175,121.519479,25.086782,https://www.ttcx.dot.gov.taipei/cpt/api/TimingPlan/pdf/S2HM810
I2HME,S2HME10,"景興路-222,241巷",GN0311,121.544605,24.993749,https://www.ttcx.dot.gov.taipei/cpt/api/TimingPlan/pdf/S2HME10
I2ILN,S2ILN10,羅斯福六段-溪口街,GA0044,121.541169,24.994176,https://www.ttcx.dot.gov.taipei/cpt/api/TimingPlan/pdf/S2ILN10
I2ILP,S2ILP10,羅斯福六段-景華街,GA0044,121.541192,24.994917,https://www.ttcx.dot.gov.taipei/cpt/api/TimingPlan/pdf/S2ILP10
I2IME,S2IME10,景興路153巷,GN0311,121.544656,24.994028,https://www.ttcx.dot.gov.taipei/cpt/api/TimingPlan/pdf/S2IME10
I2IQD,S2IQD10,興隆路三段海岸巡防署,GA0312,121.559436,24.9941,https://www.ttcx.dot.gov.taipei/cpt/api/TimingPlan/pdf/S2IQD10
I2JKW,S2JKW10,景福街溪口國小,GC0077,121.537625,24.994641,https://www.ttcx.dot.gov.taipei/cpt/api/TimingPlan/pdf/S2JKW10
I2JME,S2JME10,"景興路42,53巷(景興國中)",GC0077,121.544696,24.996348,https://www.ttcx.dot.gov.taipei/cpt/api/TimingPlan/pdf/S2JME10
I2JMX,S2JMX10,景華街128巷,GC0117,121.547763,24.994398,https://www.ttcx.dot.gov.taipei/cpt/api/TimingPlan/pdf/S2JMX10
I2KLN,S2KLN10,羅斯福六段-三福街,GA0044,121.541157,24.995937,https://www.ttcx.dot.gov.taipei/cpt/api/TimingPlan/pdf/S2KLN10
I2KLQ,S2KLQ10,景華街-景美街,GN0311,121.542282,24.994958,https://www.ttcx.dot.gov.taipei/cpt/api/TimingPlan/pdf/S2KLQ10
I2LME,S2LME10,景華街-景興路,GN0311,121.54469,24.995111,https://www.ttcx.dot.gov.taipei/cpt/api/TimingPlan/pdf/S2LME10
I2LQE,S2LQE10,指南路三段38巷指南國小,GC0116,121.559647,24.994893,https://www.ttcx.dot.gov.taipei/cpt/api/TimingPlan/pdf/S2LQE10
I2LSS,S2LSS10,木柵路四段-萬芳路,GA0319,121.571743,24.994856,https://www.ttcx.dot.gov.taipei/cpt/api/TimingPlan/pdf/S2LSS10
I2NKJ,S2NKJ10,溪洲街二號疏散門北側,GA0043,121.53572,24.995697,https://www.ttcx.dot.gov.taipei/cpt/api/TimingPlan/pdf/S2NKJ10
I2NKK,S2NKK10,溪洲街二號疏散門南側,GA0043,121.5359,24.995682,https://www.ttcx.dot.gov.taipei/cpt/api/TimingPlan/pdf/S2NKK10
I2PKK,S2PKK10,景福街-水快下匝道,GN0311,121.535838,24.996001,https://www.ttcx.dot.gov.taipei/cpt/api/TimingPlan/pdf/S2PKK10
I2PME,S2PME10,景興路46巷,GN0311,121.544694,24.996095,https://www.ttcx.dot.gov.taipei/cpt/api/TimingPlan/pdf/S2PME10
I2RSZ,S2RSZ10,木柵路四段木柵高工,GS0018,121.572751,24.996559,https://www.ttcx.dot.gov.taipei/cpt/api/TimingPlan/pdf/S2RSZ10
I2RXA,S2RXA10,新光路二段高速公路下,GA0321,121.593655,24.996266,https://www.ttcx.dot.gov.taipei/cpt/api/TimingPlan/pdf/S2RXA10
I2SME,S2SME10,景中街-景興路,GN0311,121.544707,24.996764,https://www.ttcx.dot.gov.taipei/cpt/api/TimingPlan/pdf/S2SME10
I2SQG,S2SQG10,興隆路三段-萬芳路,GA0312,121.559913,24.996752,https://www.ttcx.dot.gov.taipei/cpt/api/TimingPlan/pdf/S2SQG10
I2TLL,S2TLL10,羅斯福六段-景仁街,GA0044,121.540895,24.997166,https://www.ttcx.dot.gov.taipei/cpt/api/TimingPlan/pdf/S2TLL10
I2TMY,S2TMY10,景華街150巷,GC0117,121.54787,24.997239,https://www.ttcx.dot.gov.taipei/cpt/api/TimingPlan/pdf/S2TMY10
I2TTW,S2TTW10,新光路二段纜車站,GA0321,121.57732,24.997002,https://www.ttcx.dot.gov.taipei/cpt/api/TimingPlan/pdf/S2TTW10
I2UQV,S2UQV10,萬芳路-萬芳路105巷,GA0312,121.562016,24.997241,https://www.ttcx.dot.gov.taipei/cpt/api/TimingPlan/pdf/S2UQV10
I2VMY,S2VMY10,景華街176巷,GC0117,121.547882,24.997745,https://www.ttcx.dot.gov.taipei/cpt/api/TimingPlan/pdf/S2VMY10
I2VR6,S2VR610,興隆路三段36巷-16弄,GC0022,121.555031,24.999507,https://www.ttcx.dot.gov.taipei/cpt/api/TimingPlan/pdf/S2VR610
I2WKS,S2WKS10,羅斯福五段-景隆街(景福街),GA0043,121.539925,24.999625,https://www.ttcx.dot.gov.taipei/cpt/api/TimingPlan/pdf/S2WKS10
I2WNZ,S2WNZ10,辛亥路三段第二殯儀館,GA0273,121.552958,25.014103,https://www.ttcx.dot.gov.taipei/cpt/api/TimingPlan/pdf/S2WNZ10
I2WQ9,S2WQ910,興隆路三段警察專校,GA0312,121.55883,24.998065,https://www.ttcx.dot.gov.taipei/cpt/api/TimingPlan/pdf/S2WQ910
I2WUA,S2WUA10,新光路二段服務中心,GA0321,121.578691,24.997827,https://www.ttcx.dot.gov.taipei/cpt/api/TimingPlan/pdf/S2WUA10
I2XMD,S2XMD10,興隆路一段-景興路,GN0098,121.544556,24.998507,https://www.ttcx.dot.gov.taipei/cpt/api/TimingPlan/pdf/S2XMD10
I2XMK,S2XMK10,興隆路二段靜心小學,GC0036,121.545995,24.998889,https://www.ttcx.dot.gov.taipei/cpt/api/TimingPlan/pdf/S2XMK10
I2XMX,S2XMX10,仙岩路-景華街,GC0123,121.547726,24.998287,https://www.ttcx.dot.gov.taipei/cpt/api/TimingPlan/pdf/S2XMX10
I2XTE,S2XTE10,木柵路四段和平東四段,GC0071,121.574571,24.99815,https://www.ttcx.dot.gov.taipei/cpt/api/TimingPlan/pdf/S2XTE10
I2XXB,S2XXB10,木柵路五段指南停車場,GA0324,121.59372,24.99802,https://www.ttcx.dot.gov.taipei/cpt/api/TimingPlan/pdf/S2XXB10
I2YKH,S2YKH10,羅斯福六段142巷-20弄,GA0325,121.537095,24.99801,https://www.ttcx.dot.gov.taipei/cpt/api/TimingPlan/pdf/S2YKH10
I2YTH,S2YTH10,木柵路四段9巷(新光河山),GS0017,121.574978,24.998573,https://www.ttcx.dot.gov.taipei/cpt/api/TimingPlan/pdf/S2YTH10
I2YTU,S2YTU10,萬和街-萬安街16巷,GC0147,121.568741,25.000424,https://www.ttcx.dot.gov.taipei/cpt/api/TimingPlan/pdf/S2YTU10
I2ZKH,S2ZKH10,景福街-水快上匝道,GN0311,121.536897,24.998101,https://www.ttcx.dot.gov.taipei/cpt/api/TimingPlan/pdf/S2ZKH10
I2ZKZ,S2ZKZ10,景福街54巷,GC0077,121.538118,24.999048,https://www.ttcx.dot.gov.taipei/cpt/api/TimingPlan/pdf/S2ZKZ10
I2ZP9,S2ZP910,辛亥路五段73巷,GA0113,121.553673,24.999096,https://www.ttcx.dot.gov.taipei/cpt/api/TimingPlan/pdf/S2ZP910
I2ZRU,S2ZRU10,萬芳路-萬利街,GS0316,121.566987,24.999046,https://www.ttcx.dot.gov.taipei/cpt/api/TimingPlan/pdf/S2ZRU10
I2ZSB,S2ZSB10,萬芳路-萬和街,GS0316,121.569046,24.998758,https://www.ttcx.dot.gov.taipei/cpt/api/TimingPlan/pdf/S2ZSB10
I2ZUI,S2ZUI10,新光路二段-動物園,GA0321,121.580062,24.998643,https://www.ttcx.dot.gov.taipei/cpt/api/TimingPlan/pdf/S2ZUI10
I2ZXB,S2ZXB10,木柵路五段二高橋下,GA0324,121.593723,24.998779,https://www.ttcx.dot.gov.taipei/cpt/api/TimingPlan/pdf/S2ZXB10
I35J6,S35J610,"士東路89,91巷",GC0113,121.528976,25.112099,https://www.ttcx.dot.gov.taipei/cpt/api/TimingPlan/pdf/S35J610
I36F6,S36F610,承德路七段-石牌路一段,GA0026,121.509235,25.112448,https://www.ttcx.dot.gov.taipei/cpt/api/TimingPlan/pdf/S36F610
I36H8,S36H810,懷德街-東陽街,GC0001,121.519457,25.112296,https://www.ttcx.dot.gov.taipei/cpt/api/TimingPlan/pdf/S36H810
I36Q5,S36Q510,至善路三段中社路一段,GA0225,121.558682,25.111972,https://www.ttcx.dot.gov.taipei/cpt/api/TimingPlan/pdf/S36Q510
I37JI,S37JI10,忠誠路二段-士東路,GC0115,121.531069,25.112408,https://www.ttcx.dot.gov.taipei/cpt/api/TimingPlan/pdf/S37JI10
I38GP,S38GP10,東華街一段-裕民六路,GN0215,121.516823,25.113072,https://www.ttcx.dot.gov.taipei/cpt/api/TimingPlan/pdf/S38GP10
I38JS,S38JS10,士東路200巷(士林法院),GN0221,121.532468,25.112565,https://www.ttcx.dot.gov.taipei/cpt/api/TimingPlan/pdf/S38JS10
I3AIL,S3AIL10,中山北六段405巷,GS0048,121.526529,25.112758,https://www.ttcx.dot.gov.taipei/cpt/api/TimingPlan/pdf/S3AIL10
I3BHP,S3BHP10,明德路-明德國小,GC0001,121.522029,25.11318,https://www.ttcx.dot.gov.taipei/cpt/api/TimingPlan/pdf/S3BHP10
I3CRI,S3CRI10,至善路三段71巷,GA0225,121.565678,25.11311,https://www.ttcx.dot.gov.taipei/cpt/api/TimingPlan/pdf/S3CRI10
I3EKR,S3EKR10,士東路286巷,GN0221,121.53735,25.11346,https://www.ttcx.dot.gov.taipei/cpt/api/TimingPlan/pdf/S3EKR10
I3FGP,S3FGP10,東華街一段-東陽街,GN0215,121.517484,25.112284,https://www.ttcx.dot.gov.taipei/cpt/api/TimingPlan/pdf/S3FGP10
I3HFP,S3HFP10,石牌路一段-致遠二路,GC0082,121.512196,25.114009,https://www.ttcx.dot.gov.taipei/cpt/api/TimingPlan/pdf/S3HFP10
I3HL7,S3HL710,士東路-東山路,GN0221,121.539207,25.113931,https://www.ttcx.dot.gov.taipei/cpt/api/TimingPlan/pdf/S3HL710
I3JGH,S3JGH10,東華街一段-裕民二路,GN0215,121.516064,25.114167,https://www.ttcx.dot.gov.taipei/cpt/api/TimingPlan/pdf/S3JGH10
I3JHA,S3JHA10,懷德街-榮華三路,GN0215,121.519822,25.11419,https://www.ttcx.dot.gov.taipei/cpt/api/TimingPlan/pdf/S3JHA10
I3KGS,S3KGS10,裕民六路114巷,GC0173,121.517473,25.114442,https://www.ttcx.dot.gov.taipei/cpt/api/TimingPlan/pdf/S3KGS10
I3KIR,S3KIR10,中山北六段450巷,GA0033,121.527379,25.114389,https://www.ttcx.dot.gov.taipei/cpt/api/TimingPlan/pdf/S3KIR10
I3LHL,S3LHL10,明德路289巷,GN0215,121.521655,25.114554,https://www.ttcx.dot.gov.taipei/cpt/api/TimingPlan/pdf/S3LHL10
I3MER,S3MER10,承德路七段-實踐街,GA0026,121.507131,25.11437,https://www.ttcx.dot.gov.taipei/cpt/api/TimingPlan/pdf/S3MER10
I3NG7,S3NG710,石牌路一段139號(石牌國中),GC0076,121.514362,25.114886,https://www.ttcx.dot.gov.taipei/cpt/api/TimingPlan/pdf/S3NG710
I3QJV,S3QJV10,忠誠路二段154巷,GN0221,121.532934,25.114902,https://www.ttcx.dot.gov.taipei/cpt/api/TimingPlan/pdf/S3QJV10
I3RFL,S3RFL10,致遠二路-實踐街,GN0208,121.511636,25.115266,https://www.ttcx.dot.gov.taipei/cpt/api/TimingPlan/pdf/S3RFL10
I3RGC,S3RGC10,石牌路二段-東華街二段,GN0208,121.515266,25.115307,https://www.ttcx.dot.gov.taipei/cpt/api/TimingPlan/pdf/S3RGC10
I3RIW,S3RIW10,中山北六段776巷,GA0220,121.528577,25.116344,https://www.ttcx.dot.gov.taipei/cpt/api/TimingPlan/pdf/S3RIW10
I3SHC,S3SHC10,明德路-振華街(懷德街),GN0215,121.520076,25.115498,https://www.ttcx.dot.gov.taipei/cpt/api/TimingPlan/pdf/S3SHC10
I3TFK,S3TFK10,致遠二路71巷,GN0208,121.511618,25.115582,https://www.ttcx.dot.gov.taipei/cpt/api/TimingPlan/pdf/S3TFK10
I3UNW,S3UNW10,仰德大道三段61號(陽明山國小),GS0209,121.551667,25.117551,https://www.ttcx.dot.gov.taipei/cpt/api/TimingPlan/pdf/S3UNW10
I3VIW,S3VIW10,中山北六段728巷,GA0033,121.528169,25.115858,https://www.ttcx.dot.gov.taipei/cpt/api/TimingPlan/pdf/S3VIW10
I3XLC,S3XLC10,天母東路-8巷,GA0220,121.531683,25.118016,https://www.ttcx.dot.gov.taipei/cpt/api/TimingPlan/pdf/S3XLC10
I3ZGT,S3ZGT10,裕民六路-裕民二路33巷,GN0215,121.517828,25.116246,https://www.ttcx.dot.gov.taipei/cpt/api/TimingPlan/pdf/S3ZGT10
I3ZK7,S3ZK710,忠誠路二段207巷,GN0221,121.534071,25.11646,https://www.ttcx.dot.gov.taipei/cpt/api/TimingPlan/pdf/S3ZK710
I3ZL6,S3ZL610,東山路-忠誠路二段207巷,GN0221,121.539049,25.116397,https://www.ttcx.dot.gov.taipei/cpt/api/TimingPlan/pdf/S3ZL610
I3ZT8,S3ZT810,至善路三段150巷,GA0225,121.573992,25.11632,https://www.ttcx.dot.gov.taipei/cpt/api/TimingPlan/pdf/S3ZT810
I45HV,S45HV10,明德路208巷,GN0215,121.521798,25.112459,https://www.ttcx.dot.gov.taipei/cpt/api/TimingPlan/pdf/S45HV10
I46GI,S46GI10,石牌路二段-裕民一路,GN0208,121.516214,25.116731,https://www.ttcx.dot.gov.taipei/cpt/api/TimingPlan/pdf/S46GI10
I47EN,S47EN10,承德路七段-立賢路,GA0030,121.507102,25.117015,https://www.ttcx.dot.gov.taipei/cpt/api/TimingPlan/pdf/S47EN10
I47JK,S47JK10,天母西路117巷,GS0227,121.523136,25.11887,https://www.ttcx.dot.gov.taipei/cpt/api/TimingPlan/pdf/S47JK10
I49HJ,S49HJ10,明德路365號(台北護理健康大學),GS0009,121.521363,25.117299,https://www.ttcx.dot.gov.taipei/cpt/api/TimingPlan/pdf/S49HJ10
I49KQ,S49KQ10,忠誠路二段207巷-士東路299巷(天母國中後門),GS0286,121.534171,25.116495,https://www.ttcx.dot.gov.taipei/cpt/api/TimingPlan/pdf/S49KQ10
I4AFV,S4AFV10,西安街二段-致遠二路,GN0208,121.513173,25.117481,https://www.ttcx.dot.gov.taipei/cpt/api/TimingPlan/pdf/S4AFV10
I4AGK,S4AGK10,石牌路二段99巷,GN0214,121.516594,25.117497,https://www.ttcx.dot.gov.taipei/cpt/api/TimingPlan/pdf/S4AGK10
I4BGK,S4BGK10,石牌路一段-西安街二段,GN0208,121.514878,25.115101,https://www.ttcx.dot.gov.taipei/cpt/api/TimingPlan/pdf/S4BGK10
I4BHQ,S4BHQ10,明德路-振興街(振興醫院),GS0009,121.522306,25.117567,https://www.ttcx.dot.gov.taipei/cpt/api/TimingPlan/pdf/S4BHQ10
I4BVN,S4BVN10,至善路三段231號(楓林橋),GA0225,121.586395,25.117398,https://www.ttcx.dot.gov.taipei/cpt/api/TimingPlan/pdf/S4BVN10
I4CDY,S4CDY10,西安街二段立農街一段187巷,GN0215,121.504718,25.120833,https://www.ttcx.dot.gov.taipei/cpt/api/TimingPlan/pdf/S4CDY10
I4EFY,S4EFY10,東華街二段-致遠二路,GN0208,121.513531,25.11776,https://www.ttcx.dot.gov.taipei/cpt/api/TimingPlan/pdf/S4EFY10
I4EJR,S4EJR10,天母東路43巷,GA0220,121.532363,25.118019,https://www.ttcx.dot.gov.taipei/cpt/api/TimingPlan/pdf/S4EJR10
I4F1J,S4F1J10,關渡路-知行路,GS0201,121.46902,25.118413,https://www.ttcx.dot.gov.taipei/cpt/api/TimingPlan/pdf/S4F1J10
I4FKA,S4FKA10,天母東路-忠誠路二段,GC0010,121.534663,25.118083,https://www.ttcx.dot.gov.taipei/cpt/api/TimingPlan/pdf/S4FKA10
I4FKK,S4FKK10,天母東路107巷,GC0038,121.536548,25.11813,https://www.ttcx.dot.gov.taipei/cpt/api/TimingPlan/pdf/S4FKK10
I4HEJ,S4HEJ10,吉利街-尊賢街,GA0026,121.506484,25.118552,https://www.ttcx.dot.gov.taipei/cpt/api/TimingPlan/pdf/S4HEJ10
I4HHN,S4HHN10,明德路150巷,GC0159,121.522342,25.114362,https://www.ttcx.dot.gov.taipei/cpt/api/TimingPlan/pdf/S4HHN10
I4HIR,S4HIR10,天母西路41巷,GN0214,121.528497,25.118394,https://www.ttcx.dot.gov.taipei/cpt/api/TimingPlan/pdf/S4HIR10
I4HIX,S4HIX10,天母西路13巷,GN0214,121.529062,25.118392,https://www.ttcx.dot.gov.taipei/cpt/api/TimingPlan/pdf/S4HIX10
I4IG8,S4IG810,西安街二段259號,GA0206,121.506288,25.120588,https://www.ttcx.dot.gov.taipei/cpt/api/TimingPlan/pdf/S4IG810
I4IHB,S4IHB10,石牌路二段-榮總正門,GN0214,121.519921,25.11865,https://www.ttcx.dot.gov.taipei/cpt/api/TimingPlan/pdf/S4IHB10
I4II7,S4II710,天母西路95巷(磺溪),GN0214,121.524293,25.118553,https://www.ttcx.dot.gov.taipei/cpt/api/TimingPlan/pdf/S4II710
I4III,S4III10,天母西路-天母北路,GN0214,121.526147,25.118429,https://www.ttcx.dot.gov.taipei/cpt/api/TimingPlan/pdf/S4III10
I4IJX,S4IJX10,中山北七段14巷-天母東路69巷,GC0010,121.53344,25.118555,https://www.ttcx.dot.gov.taipei/cpt/api/TimingPlan/pdf/S4IJX10
I4JFS,S4JFS10,東華街二段-立農街二段,GA0206,121.512535,25.119046,https://www.ttcx.dot.gov.taipei/cpt/api/TimingPlan/pdf/S4JFS10
I4JG7,S4JG710,西安街二段-立農街一段279巷,GN0215,121.514319,25.118814,https://www.ttcx.dot.gov.taipei/cpt/api/TimingPlan/pdf/S4JG710
I4JGA,S4JGA10,立農街二段202巷,GA0206,121.515032,25.118748,https://www.ttcx.dot.gov.taipei/cpt/api/TimingPlan/pdf/S4JGA10
I4JH5,S4JH510,石牌路二段130巷,GN0208,121.517548,25.118089,https://www.ttcx.dot.gov.taipei/cpt/api/TimingPlan/pdf/S4JH510
I4JHQ,S4JHQ10,明德路-榮華二路,GN0215,121.522311,25.118768,https://www.ttcx.dot.gov.taipei/cpt/api/TimingPlan/pdf/S4JHQ10
I4KFS,S4KFS10,東華街二段340巷,GN0215,121.504195,25.121448,https://www.ttcx.dot.gov.taipei/cpt/api/TimingPlan/pdf/S4KFS10
I4KFV,S4KFV10,立農街二段陽明大學,GA0206,121.513179,25.118908,https://www.ttcx.dot.gov.taipei/cpt/api/TimingPlan/pdf/S4KFV10
I4KGL,S4KGL10,石牌路二段322號(身障重建中心),GS0227,121.517005,25.118597,https://www.ttcx.dot.gov.taipei/cpt/api/TimingPlan/pdf/S4KGL10
I4KHJ,S4KHJ10,石牌路二段-振興街,GN0214,121.52131,25.11897,https://www.ttcx.dot.gov.taipei/cpt/api/TimingPlan/pdf/S4KHJ10
I4KJE,S4KJE10,中山北七段14巷,GA0033,121.530522,25.11882,https://www.ttcx.dot.gov.taipei/cpt/api/TimingPlan/pdf/S4KJE10
I4KLS,S4KLS10,東山路25巷81弄-光華路61巷4弄,GS0445,121.542556,25.118849,https://www.ttcx.dot.gov.taipei/cpt/api/TimingPlan/pdf/S4KLS10
I4LHQ,S4LHQ10,天母西路130巷,GN0214,121.522362,25.119074,https://www.ttcx.dot.gov.taipei/cpt/api/TimingPlan/pdf/S4LHQ10
I4LHR,S4LHR10,石牌路二段-天母西路,GN0214,121.522847,25.118955,https://www.ttcx.dot.gov.taipei/cpt/api/TimingPlan/pdf/S4LHR10
I4LNV,S4LNV10,仰德大道三段-新安路,GS0209,121.552833,25.118928,https://www.ttcx.dot.gov.taipei/cpt/api/TimingPlan/pdf/S4LNV10
I4M1J,S4M1J10,關渡路-知行路210巷(自然公園),GS0201,121.469103,25.119352,https://www.ttcx.dot.gov.taipei/cpt/api/TimingPlan/pdf/S4M1J10
I4MDI,S4MDI10,承德路七段-公館路,GA0026,121.5015,25.119499,https://www.ttcx.dot.gov.taipei/cpt/api/TimingPlan/pdf/S4MDI10
I4NDZ,S4NDZ10,大度路31號,GN0861,121.495788,25.121367,https://www.ttcx.dot.gov.taipei/cpt/api/TimingPlan/pdf/S4NDZ10
I4NFJ,S4NFJ10,西安街二段-立農街一段,GA0206,121.511426,25.119383,https://www.ttcx.dot.gov.taipei/cpt/api/TimingPlan/pdf/S4NFJ10
I4NJD,S4NJD10,中山北六段-天母東路,GA0220,121.530083,25.118243,https://www.ttcx.dot.gov.taipei/cpt/api/TimingPlan/pdf/S4NJD10
I4NQI,S4NQI10,仰德大道三段125巷,GS0400,121.552649,25.121193,https://www.ttcx.dot.gov.taipei/cpt/api/TimingPlan/pdf/S4NQI10
I4PJG,S4PJG10,中山北七段81巷-天玉街39巷,GN0864,121.530893,25.119784,https://www.ttcx.dot.gov.taipei/cpt/api/TimingPlan/pdf/S4PJG10
I4PUW,S4PUW10,至善路三段199號(溪山國小),GA0225,121.582743,25.119275,https://www.ttcx.dot.gov.taipei/cpt/api/TimingPlan/pdf/S4PUW10
I4RFA,S4RFA10,西安街二段-立農街一段413巷,GA0206,121.509911,25.119912,https://www.ttcx.dot.gov.taipei/cpt/api/TimingPlan/pdf/S4RFA10
I4SIK,S4SIK10,天母北路-天玉街,GC0111,121.526431,25.1199,https://www.ttcx.dot.gov.taipei/cpt/api/TimingPlan/pdf/S4SIK10
I4SJM,S4SJM10,"中山北七段38,51巷",GA0033,121.531771,25.119981,https://www.ttcx.dot.gov.taipei/cpt/api/TimingPlan/pdf/S4SJM10
I4TDM,S4TDM10,公館路423巷8弄,GA0026,121.501988,25.120147,https://www.ttcx.dot.gov.taipei/cpt/api/TimingPlan/pdf/S4TDM10
I4TEY,S4TEY10,西安街二段-立農街一段385巷,GC0015,121.508761,25.120124,https://www.ttcx.dot.gov.taipei/cpt/api/TimingPlan/pdf/S4TEY10
I4TWM,S4TWM10,至善路三段336巷,GA0225,121.5912,25.119821,https://www.ttcx.dot.gov.taipei/cpt/api/TimingPlan/pdf/S4TWM10
I4UET,S4UET10,西安街二段-立農街一段349巷,GA0206,121.507899,25.120289,https://www.ttcx.dot.gov.taipei/cpt/api/TimingPlan/pdf/S4UET10
I4VDD,S4VDD10,承德路六段331巷,GA0027,121.511874,25.105578,https://www.ttcx.dot.gov.taipei/cpt/api/TimingPlan/pdf/S4VDD10
I4VEZ,S4VEZ10,東華街二段-致遠三路55巷,GN0215,121.508941,25.120529,https://www.ttcx.dot.gov.taipei/cpt/api/TimingPlan/pdf/S4VEZ10
I4VHT,S4VHT10,石牌路二段322號(致德樓),GS0227,121.522764,25.120361,https://www.ttcx.dot.gov.taipei/cpt/api/TimingPlan/pdf/S4VHT10
I4W1J,S4W1J10,關渡路-知行路260巷,GS0201,121.469297,25.120805,https://www.ttcx.dot.gov.taipei/cpt/api/TimingPlan/pdf/S4W1J10
I4WEU,S4WEU10,東華街二段266號,GC0015,121.508149,25.120677,https://www.ttcx.dot.gov.taipei/cpt/api/TimingPlan/pdf/S4WEU10
I4X2D,S4X2D10,大度路-關渡路,GS0229,121.468878,25.122822,https://www.ttcx.dot.gov.taipei/cpt/api/TimingPlan/pdf/S4X2D10
I4XE9,S4XE910,民權路-自強路(新北市路口),GS0201,121.508109,25.120623,https://www.ttcx.dot.gov.taipei/cpt/api/TimingPlan/pdf/S4XE910
I4XJ6,S4XJ610,天玉街38巷-16弄,GN0864,121.529182,25.120738,https://www.ttcx.dot.gov.taipei/cpt/api/TimingPlan/pdf/S4XJ610
I4YEL,S4YEL10,東華街二段-300巷,GA0206,121.506811,25.120934,https://www.ttcx.dot.gov.taipei/cpt/api/TimingPlan/pdf/S4YEL10
I4ZD5,S4ZD510,承德路七段-大業路,GA0026,121.499801,25.121093,https://www.ttcx.dot.gov.taipei/cpt/api/TimingPlan/pdf/S4ZD510
I4ZFL,S4ZFL10,東華街二段-致遠三路,GN0215,121.51178,25.121043,https://www.ttcx.dot.gov.taipei/cpt/api/TimingPlan/pdf/S4ZFL10
I56BU,S56BU10,大度路一段-中央北路二段257巷,GA0026,121.48608,25.121852,https://www.ttcx.dot.gov.taipei/cpt/api/TimingPlan/pdf/S56BU10
I56BW,S56BW10,大度路一段155號,GN0861,121.493555,25.121475,https://www.ttcx.dot.gov.taipei/cpt/api/TimingPlan/pdf/S56BW10
I56DR,S56DR10,西安街二段-公館路,GA0206,121.502698,25.121399,https://www.ttcx.dot.gov.taipei/cpt/api/TimingPlan/pdf/S56DR10
I56E5,S56E510,東華街二段366號,GA0206,121.504195,25.121421,https://www.ttcx.dot.gov.taipei/cpt/api/TimingPlan/pdf/S56E510
I56J7,S56J710,"天玉街38,39巷",GN0864,121.529223,25.121208,https://www.ttcx.dot.gov.taipei/cpt/api/TimingPlan/pdf/S56J710
I57JL,S57JL10,"中山北七段81,82巷",GA0033,121.531545,25.121506,https://www.ttcx.dot.gov.taipei/cpt/api/TimingPlan/pdf/S57JL10
I58AH,S58AH10,大度路-立德路,GS0229,121.471407,25.122847,https://www.ttcx.dot.gov.taipei/cpt/api/TimingPlan/pdf/S58AH10
I59IM,S59IM10,天母北路65巷,GS0286,121.526765,25.121578,https://www.ttcx.dot.gov.taipei/cpt/api/TimingPlan/pdf/S59IM10
I5AAF,S5AAF10,大度路-知行路,GN0861,121.466877,25.123214,https://www.ttcx.dot.gov.taipei/cpt/api/TimingPlan/pdf/S5AAF10
I5ADS,S5ADS10,東華街二段-公館路,GA0206,121.502779,25.121914,https://www.ttcx.dot.gov.taipei/cpt/api/TimingPlan/pdf/S5ADS10
I5AHZ,S5AHZ10,石牌路二段324巷,GS0227,121.523843,25.121978,https://www.ttcx.dot.gov.taipei/cpt/api/TimingPlan/pdf/S5AHZ10
I5BJ5,S5BJ510,關渡路-知行路316巷,GS0201,121.46958,25.122321,https://www.ttcx.dot.gov.taipei/cpt/api/TimingPlan/pdf/S5BJ510
I5BWW,S5BWW10,至善路三段聖人瀑布入口,GA0225,121.592748,25.121852,https://www.ttcx.dot.gov.taipei/cpt/api/TimingPlan/pdf/S5BWW10
I5CJN,S5CJN10,中山北七段114巷,GA0033,121.531786,25.122147,https://www.ttcx.dot.gov.taipei/cpt/api/TimingPlan/pdf/S5CJN10
I5DWU,S5DWU10,至善路三段聖人瀑布出口,GA0225,121.592406,25.122177,https://www.ttcx.dot.gov.taipei/cpt/api/TimingPlan/pdf/S5DWU10
I5E16,S5E1610,中央北四段-大度路,GS0229,121.464409,25.123727,https://www.ttcx.dot.gov.taipei/cpt/api/TimingPlan/pdf/S5E1610
I5FDY,S5FDY10,崇仁路一段-公館路,GA0206,121.503834,25.122822,https://www.ttcx.dot.gov.taipei/cpt/api/TimingPlan/pdf/S5FDY10
I5G1I,S5G1I10,大度路-立功街(北側),GS0229,121.468879,25.123054,https://www.ttcx.dot.gov.taipei/cpt/api/TimingPlan/pdf/S5G1I10
I5GE7,S5GE710,公館路-大興街,GN0025,121.504549,25.122973,https://www.ttcx.dot.gov.taipei/cpt/api/TimingPlan/pdf/S5GE710
I5GLI,S5GLI10,中山北七段219巷3弄,GA0033,121.532757,25.124722,https://www.ttcx.dot.gov.taipei/cpt/api/TimingPlan/pdf/S5GLI10
I5HCM,S5HCM10,立功街55巷,GN0861,121.469603,25.125598,https://www.ttcx.dot.gov.taipei/cpt/api/TimingPlan/pdf/S5HCM10
I5HJP,S5HJP10,"中山北七段140,141巷",GA0033,121.532127,25.12303,https://www.ttcx.dot.gov.taipei/cpt/api/TimingPlan/pdf/S5HJP10
I5IJP,S5IJP10,天玉街-中山北七段141巷,GN0864,121.531313,25.123051,https://www.ttcx.dot.gov.taipei/cpt/api/TimingPlan/pdf/S5IJP10
I5K16,S5K1610,中央北四段595號,GS0229,121.465014,25.123563,https://www.ttcx.dot.gov.taipei/cpt/api/TimingPlan/pdf/S5K1610
I5KEA,S5KEA10,公館路334巷(單閃),GN0214,121.505037,25.123495,https://www.ttcx.dot.gov.taipei/cpt/api/TimingPlan/pdf/S5KEA10
I5LIJ,S5LIJ10,仰德大道二段134巷(林語堂圖書館),GS0209,121.526327,25.123502,https://www.ttcx.dot.gov.taipei/cpt/api/TimingPlan/pdf/S5LIJ10
I5LJQ,S5LJQ10,"中山北七段-152,165號",GA0033,121.532309,25.123488,https://www.ttcx.dot.gov.taipei/cpt/api/TimingPlan/pdf/S5LJQ10
I5MPW,S5MPW10,仰德大道三段250巷,GS0209,121.549803,25.125576,https://www.ttcx.dot.gov.taipei/cpt/api/TimingPlan/pdf/S5MPW10
I5NDU,S5NDU10,磺港路-崇仁路一段155巷,GN0025,121.503085,25.123881,https://www.ttcx.dot.gov.taipei/cpt/api/TimingPlan/pdf/S5NDU10
I5NIU,S5NIU10,行義路-同德街,GN0864,121.527885,25.126042,https://www.ttcx.dot.gov.taipei/cpt/api/TimingPlan/pdf/S5NIU10
I5T2M,S5T2M10,立德路120巷,GS0229,121.471784,25.126674,https://www.ttcx.dot.gov.taipei/cpt/api/TimingPlan/pdf/S5T2M10
I5TIJ,S5TIJ10,行義路10巷,GN0864,121.526223,25.124658,https://www.ttcx.dot.gov.taipei/cpt/api/TimingPlan/pdf/S5TIJ10
I5WG5,S5WG510,三合街一段82巷,GN0214,121.505896,25.127087,https://www.ttcx.dot.gov.taipei/cpt/api/TimingPlan/pdf/S5WG510
I5XBS,S5XBS10,立德路-立功街,GS0229,121.471665,25.125338,https://www.ttcx.dot.gov.taipei/cpt/api/TimingPlan/pdf/S5XBS10
I5YDS,S5YDS10,公館路228巷,GC0199,121.502803,25.125444,https://www.ttcx.dot.gov.taipei/cpt/api/TimingPlan/pdf/S5YDS10
I65CW,S65CW10,大業路-三合街二段,GN0025,121.49854,25.12572,https://www.ttcx.dot.gov.taipei/cpt/api/TimingPlan/pdf/S65CW10
I67DE,S67DE10,北投路一段三合街二段,GA0206,121.500744,25.126191,https://www.ttcx.dot.gov.taipei/cpt/api/TimingPlan/pdf/S67DE10
I67DF,S67DF10,中央南二段三合街二段,GA0204,121.500466,25.12612,https://www.ttcx.dot.gov.taipei/cpt/api/TimingPlan/pdf/S67DF10
I69DJ,S69DJ10,崇仁路一段三合街二段,GA0206,121.501468,25.126342,https://www.ttcx.dot.gov.taipei/cpt/api/TimingPlan/pdf/S69DJ10
I6BCU,S6BCU10,大業路280巷,GN0025,121.498011,25.127211,https://www.ttcx.dot.gov.taipei/cpt/api/TimingPlan/pdf/S6BCU10
I6BDW,S6BDW10,磺港路-三合街二段,GN0214,121.503542,25.126678,https://www.ttcx.dot.gov.taipei/cpt/api/TimingPlan/pdf/S6BDW10
I6E1B,S6E1B10,中央北四段541巷,GC0020,121.467648,25.127834,https://www.ttcx.dot.gov.taipei/cpt/api/TimingPlan/pdf/S6E1B10
I6FDD,S6FDD10,北投路一段-大業路280巷,GN0215,121.50051,25.127329,https://www.ttcx.dot.gov.taipei/cpt/api/TimingPlan/pdf/S6FDD10
I6GDI,S6GDI10,崇仁路一段155巷,GA0206,121.501382,25.127082,https://www.ttcx.dot.gov.taipei/cpt/api/TimingPlan/pdf/S6GDI10
I6KBG,S6KBG10,立功街-中央北四段515巷,GS0230,121.468935,25.127396,https://www.ttcx.dot.gov.taipei/cpt/api/TimingPlan/pdf/S6KBG10
I6LDL,S6LDL10,中央南一段-大興街,GA0204,121.501872,25.128002,https://www.ttcx.dot.gov.taipei/cpt/api/TimingPlan/pdf/S6LDL10
I6MBI,S6MBI10,中央北四段-一德街,GA0202,121.491371,25.128281,https://www.ttcx.dot.gov.taipei/cpt/api/TimingPlan/pdf/S6MBI10
I6MDH,S6MDH10,中央南一段-崇仁路一段,GA0204,121.5012,25.128582,https://www.ttcx.dot.gov.taipei/cpt/api/TimingPlan/pdf/S6MDH10
I6N1K,S6N1K10,中央北四段456巷,GA0202,121.469466,25.128618,https://www.ttcx.dot.gov.taipei/cpt/api/TimingPlan/pdf/S6N1K10
I6Q1M,S6Q1M10,中央北四段404巷,GA0202,121.470181,25.128918,https://www.ttcx.dot.gov.taipei/cpt/api/TimingPlan/pdf/S6Q1M10
I6T2B,S6T2B10,學園路-臺北藝術大學,GC0007,121.476847,25.129321,https://www.ttcx.dot.gov.taipei/cpt/api/TimingPlan/pdf/S6T2B10
I6TCN,S6TCN10,大業路-大興街,GN0025,121.497059,25.129598,https://www.ttcx.dot.gov.taipei/cpt/api/TimingPlan/pdf/S6TCN10
I6YCW,S6YCW10,"大興街23,24巷",GN0025,121.498517,25.129938,https://www.ttcx.dot.gov.taipei/cpt/api/TimingPlan/pdf/S6YCW10
I75D8,S75D810,北投路二段-大興街,GN0025,121.499649,25.130212,https://www.ttcx.dot.gov.taipei/cpt/api/TimingPlan/pdf/S75D810
I76DM,S76DM10,大興街-清江路,GN0025,121.502002,25.130773,https://www.ttcx.dot.gov.taipei/cpt/api/TimingPlan/pdf/S76DM10
I77CZ,S77CZ10,北投路二段-大業路516巷,GC0045,121.499018,25.130891,https://www.ttcx.dot.gov.taipei/cpt/api/TimingPlan/pdf/S77CZ10
I77DX,S77DX10,磺港路-大興街,GN0025,121.503312,25.130868,https://www.ttcx.dot.gov.taipei/cpt/api/TimingPlan/pdf/S77DX10
I78CH,S78CH10,大業路65巷,GN0025,121.499234,25.123163,https://www.ttcx.dot.gov.taipei/cpt/api/TimingPlan/pdf/S78CH10
I78IV,S78IV10,行義路130巷,GN0864,121.528092,25.13105,https://www.ttcx.dot.gov.taipei/cpt/api/TimingPlan/pdf/S78IV10
I79BS,S79BS10,中央北二段-豐年路二段,GN0025,121.494521,25.137253,https://www.ttcx.dot.gov.taipei/cpt/api/TimingPlan/pdf/S79BS10
I79DW,S79DW10,磺港路-北投區公所,GC0105,121.503522,25.131454,https://www.ttcx.dot.gov.taipei/cpt/api/TimingPlan/pdf/S79DW10
I7ABZ,S7ABZ10,中央北四段577巷,GC0020,121.494023,25.131739,https://www.ttcx.dot.gov.taipei/cpt/api/TimingPlan/pdf/S7ABZ10
I7BCS,S7BCS10,北投路二段捷運北投站門口,GN0025,121.497912,25.132168,https://www.ttcx.dot.gov.taipei/cpt/api/TimingPlan/pdf/S7BCS10
I7C26,S7C2610,中央北四段515巷(立功街),GA0202,121.468423,25.128192,https://www.ttcx.dot.gov.taipei/cpt/api/TimingPlan/pdf/S7C2610
I7CIW,S7CIW10,行義路154巷,GN0864,121.528396,25.132267,https://www.ttcx.dot.gov.taipei/cpt/api/TimingPlan/pdf/S7CIW10
I7DMK,S7DMK10,格致路-凱旋路,GC0181,121.546419,25.136998,https://www.ttcx.dot.gov.taipei/cpt/api/TimingPlan/pdf/S7DMK10
I7EDJ,S7EDJ10,中央南一段-光明路(公館路),GA0204,121.501506,25.13314,https://www.ttcx.dot.gov.taipei/cpt/api/TimingPlan/pdf/S7EDJ10
I7FCI,S7FCI10,大業路452巷,GN0025,121.496203,25.131406,https://www.ttcx.dot.gov.taipei/cpt/api/TimingPlan/pdf/S7FCI10
I7GCK,S7GCK10,北投路二段11號,GN0025,121.496782,25.133782,https://www.ttcx.dot.gov.taipei/cpt/api/TimingPlan/pdf/S7GCK10
I7GCV,S7GCV10,"育仁路37,54號",GA0204,121.498401,25.133788,https://www.ttcx.dot.gov.taipei/cpt/api/TimingPlan/pdf/S7GCV10
I7HMH,S7HMH10,仰德大道四段75號(格致中學),GS0209,121.545849,25.133805,https://www.ttcx.dot.gov.taipei/cpt/api/TimingPlan/pdf/S7HMH10
I7ICH,S7ICH10,北投路二段13號,GN0025,121.497586,25.132548,https://www.ttcx.dot.gov.taipei/cpt/api/TimingPlan/pdf/S7ICH10
I7JCE,S7JCE10,大業路-豐年路二段(北投路二段),GN0025,121.496305,25.134502,https://www.ttcx.dot.gov.taipei/cpt/api/TimingPlan/pdf/S7JCE10
I7K2D,S7K2D10,"中央北四段18,30巷",GA0202,121.478218,25.135077,https://www.ttcx.dot.gov.taipei/cpt/api/TimingPlan/pdf/S7K2D10
I7K2F,S7K2F10,中央北四段桃源國中,GC0086,121.476,25.13345,https://www.ttcx.dot.gov.taipei/cpt/api/TimingPlan/pdf/S7K2F10
I7KD7,S7KD710,中央北一段育仁路,GC0108,121.499549,25.134771,https://www.ttcx.dot.gov.taipei/cpt/api/TimingPlan/pdf/S7KD710
I7L2G,S7L2G10,中央北四段-一心路,GA0202,121.474846,25.132532,https://www.ttcx.dot.gov.taipei/cpt/api/TimingPlan/pdf/S7L2G10
I7LCX,S7LCX10,中央北一段-大同路,GN0025,121.498787,25.135271,https://www.ttcx.dot.gov.taipei/cpt/api/TimingPlan/pdf/S7LCX10
I7P2M,S7P2M10,中央北三段-252巷,GA0202,121.480235,25.136,https://www.ttcx.dot.gov.taipei/cpt/api/TimingPlan/pdf/S7P2M10
I7PCN,S7PCN10,中央北一段-大業路,GN0025,121.497174,25.136052,https://www.ttcx.dot.gov.taipei/cpt/api/TimingPlan/pdf/S7PCN10
I7PIY,S7PIY10,行義路186巷,GN0864,121.528712,25.136124,https://www.ttcx.dot.gov.taipei/cpt/api/TimingPlan/pdf/S7PIY10
I7QDZ,S7QDZ10,光明路-溫泉路37巷,GA0204,121.504097,25.136255,https://www.ttcx.dot.gov.taipei/cpt/api/TimingPlan/pdf/S7QDZ10
I7RCG,S7RCG10,中央北二段-文化三路,GN0025,121.496055,25.136553,https://www.ttcx.dot.gov.taipei/cpt/api/TimingPlan/pdf/S7RCG10
I7S2V,S7S2V10,中央北三段168巷,GA0202,121.482828,25.137138,https://www.ttcx.dot.gov.taipei/cpt/api/TimingPlan/pdf/S7S2V10
I7SCB,S7SCB10,中央北二段95巷,GN0025,121.495323,25.13688,https://www.ttcx.dot.gov.taipei/cpt/api/TimingPlan/pdf/S7SCB10
I7SCZ,S7SCZ10,大業路-大同街,GN0025,121.499092,25.136985,https://www.ttcx.dot.gov.taipei/cpt/api/TimingPlan/pdf/S7SCZ10
I7SDG,S7SDG10,大業路-雙全街,GN0025,121.501046,25.137087,https://www.ttcx.dot.gov.taipei/cpt/api/TimingPlan/pdf/S7SDG10
I7SFE,S7SFE10,光明路-中山路,GA0204,121.510715,25.136891,https://www.ttcx.dot.gov.taipei/cpt/api/TimingPlan/pdf/S7SFE10
I7SMK,S7SMK10,仰德大道四段-建業路,GS0400,121.546345,25.136708,https://www.ttcx.dot.gov.taipei/cpt/api/TimingPlan/pdf/S7SMK10
I7T2X,S7T2X10,中央北三段148巷,GA0202,121.483473,25.137353,https://www.ttcx.dot.gov.taipei/cpt/api/TimingPlan/pdf/S7T2X10
I7TDY,S7TDY10,大業路-泉源路,GN0025,121.503913,25.137185,https://www.ttcx.dot.gov.taipei/cpt/api/TimingPlan/pdf/S7TDY10
I7UBV,S7UBV10,中央北四段-學園路,GC0020,121.465529,25.126008,https://www.ttcx.dot.gov.taipei/cpt/api/TimingPlan/pdf/S7UBV10
I7UDT,S7UDT10,中華路二段-泉州街,GA0250,121.50323,25.137594,https://www.ttcx.dot.gov.taipei/cpt/api/TimingPlan/pdf/S7UDT10
I7VA5,S7VA510,中央北四段-自立路,GC0020,121.484378,25.137936,https://www.ttcx.dot.gov.taipei/cpt/api/TimingPlan/pdf/S7VA510
I7VA7,S7VA710,中央北四段316巷,GN0861,121.471861,25.130141,https://www.ttcx.dot.gov.taipei/cpt/api/TimingPlan/pdf/S7VA710
I7WAC,S7WAC10,中央北三段40巷,GA0202,121.485638,25.138194,https://www.ttcx.dot.gov.taipei/cpt/api/TimingPlan/pdf/S7WAC10
I7WAK,S7WAK10,中央北二段新興路,GA0202,121.48676,25.13829,https://www.ttcx.dot.gov.taipei/cpt/api/TimingPlan/pdf/S7WAK10
I7WAM,S7WAM10,中央北一段-北投國小,GN0115,121.500667,25.134009,https://www.ttcx.dot.gov.taipei/cpt/api/TimingPlan/pdf/S7WAM10
I7WML,S7WML10,格致路-菁山路,GC0181,121.546552,25.137874,https://www.ttcx.dot.gov.taipei/cpt/api/TimingPlan/pdf/S7WML10
I7XAX,S7XAX10,中央北三段53巷,GA0202,121.48398,25.137604,https://www.ttcx.dot.gov.taipei/cpt/api/TimingPlan/pdf/S7XAX10
I7XBH,S7XBH10,中央北二段-稻香路,GA0203,121.491441,25.138464,https://www.ttcx.dot.gov.taipei/cpt/api/TimingPlan/pdf/S7XBH10
I7XD5,S7XD510,永興路-大同街,GS0043,121.499227,25.138609,https://www.ttcx.dot.gov.taipei/cpt/api/TimingPlan/pdf/S7XD510
I7YDL,S7YDL10,中和街-珠海路,GA0205,121.501827,25.138917,https://www.ttcx.dot.gov.taipei/cpt/api/TimingPlan/pdf/S7YDL10
I7ZDJ,S7ZDJ10,中和街--雙全街,GA0205,121.501837,25.138926,https://www.ttcx.dot.gov.taipei/cpt/api/TimingPlan/pdf/S7ZDJ10
I7ZMK,S7ZMK10,格致路-愛富二街,GS0209,121.546437,25.13893,https://www.ttcx.dot.gov.taipei/cpt/api/TimingPlan/pdf/S7ZMK10
I86DF,S86DF10,中和街-永興路,GA0205,121.500997,25.139732,https://www.ttcx.dot.gov.taipei/cpt/api/TimingPlan/pdf/S86DF10
I87FC,S87FC10,新民路60號(國軍醫院),GN0025,121.510418,25.140048,https://www.ttcx.dot.gov.taipei/cpt/api/TimingPlan/pdf/S87FC10
I8AB7,S8AB710,稻香路-新興路,GA0203,121.489676,25.140925,https://www.ttcx.dot.gov.taipei/cpt/api/TimingPlan/pdf/S8AB710
I8APT,S8APT10,格致路205巷,GC0181,121.549429,25.142446,https://www.ttcx.dot.gov.taipei/cpt/api/TimingPlan/pdf/S8APT10
I8BD6,S8BD610,中和街-復興四路,GA0205,121.499447,25.141281,https://www.ttcx.dot.gov.taipei/cpt/api/TimingPlan/pdf/S8BD610
I8DFB,S8DFB10,珠海路-登山路,GA0205,121.51013,25.14184,https://www.ttcx.dot.gov.taipei/cpt/api/TimingPlan/pdf/S8DFB10
I8DPZ,S8DPZ10,新園街-菁山路101巷(菁山小鎮),GS0209,121.558609,25.141584,https://www.ttcx.dot.gov.taipei/cpt/api/TimingPlan/pdf/S8DPZ10
I8EBB,S8EBB10,稻香路-秀山路,GA0203,121.490255,25.141989,https://www.ttcx.dot.gov.taipei/cpt/api/TimingPlan/pdf/S8EBB10
I8GAZ,S8GAZ10,稻香路-石仙路,GA0203,121.489226,25.142597,https://www.ttcx.dot.gov.taipei/cpt/api/TimingPlan/pdf/S8GAZ10
I8KIL,S8KIL10,泉源路惇敘高中,GC0098,121.526732,25.14394,https://www.ttcx.dot.gov.taipei/cpt/api/TimingPlan/pdf/S8KIL10
I96MG,S96MG10,陽金公路-勝利街(湖山路),GS0209,121.546244,25.15129,https://www.ttcx.dot.gov.taipei/cpt/api/TimingPlan/pdf/S96MG10
I96MZ,S96MZ10,陽明路一段24巷(單閃),GS0209,121.548734,25.151254,https://www.ttcx.dot.gov.taipei/cpt/api/TimingPlan/pdf/S96MZ10
I96N5,S96N510,陽明路一段38巷(建國街),GS0209,121.548902,25.151253,https://www.ttcx.dot.gov.taipei/cpt/api/TimingPlan/pdf/S96N510
I96NC,S96NC10,陽金公路-陽明路一段(中山樓),GS0209,121.550063,25.151186,https://www.ttcx.dot.gov.taipei/cpt/api/TimingPlan/pdf/S96NC10
I98MH,S98MH10,陽金公路第二停車場(遊客中心),GS0209,121.545946,25.155471,https://www.ttcx.dot.gov.taipei/cpt/api/TimingPlan/pdf/S98MH10
I9FLB,S9FLB10,陽金公路竹子湖派出所,GS0209,121.540059,25.170244,https://www.ttcx.dot.gov.taipei/cpt/api/TimingPlan/pdf/S9FLB10
IA5MU,SA5MU10,興隆路二段-景華街,GN0098,121.547304,24.999345,https://www.ttcx.dot.gov.taipei/cpt/api/TimingPlan/pdf/SA5MU10
IA5NA,SA5NA10,仙岩路-興隆路二段96巷,GN0098,121.549077,24.99923,https://www.ttcx.dot.gov.taipei/cpt/api/TimingPlan/pdf/SA5NA10
IA5TC,SA5TC10,"和平東四段352,383巷",GA0319,121.57411,24.999145,https://www.ttcx.dot.gov.taipei/cpt/api/TimingPlan/pdf/SA5TC10
IA6PJ,SA6PJ10,興隆路三段36巷17弄中國科技大學,GC0022,121.555487,24.999298,https://www.ttcx.dot.gov.taipei/cpt/api/TimingPlan/pdf/SA6PJ10
IA6TJ,SA6TJ10,木柵路四段21巷(名人山莊),GS0017,121.575349,24.999185,https://www.ttcx.dot.gov.taipei/cpt/api/TimingPlan/pdf/SA6TJ10
IA83X,SA83X10,康寧路三段南湖大橋,GS0302,121.610886,25.065016,https://www.ttcx.dot.gov.taipei/cpt/api/TimingPlan/pdf/SA83X10
IA9PT,SA9PT10,興隆路三段萬芳醫院,GA0330,121.556875,24.999689,https://www.ttcx.dot.gov.taipei/cpt/api/TimingPlan/pdf/SA9PT10
IA9TM,SA9TM10,木柵路四段萬芳交流道,GA0319,121.576829,25.000055,https://www.ttcx.dot.gov.taipei/cpt/api/TimingPlan/pdf/SA9TM10
IAAM8,SAAM810,興隆路一段251巷,GN0098,121.543721,24.999963,https://www.ttcx.dot.gov.taipei/cpt/api/TimingPlan/pdf/SAAM810
IAAPB,SAAPB10,辛亥路五段25巷,GA0330,121.554083,24.999862,https://www.ttcx.dot.gov.taipei/cpt/api/TimingPlan/pdf/SAAPB10
IAAT9,SAAT910,和平東四段295巷,GA0319,121.573684,24.999924,https://www.ttcx.dot.gov.taipei/cpt/api/TimingPlan/pdf/SAAT910
IABWK,SABWK10,木柵路五段66號,GA0324,121.590401,24.999993,https://www.ttcx.dot.gov.taipei/cpt/api/TimingPlan/pdf/SABWK10
IACN7,SACN710,興隆路二段96巷,GN0098,121.548527,25.000325,https://www.ttcx.dot.gov.taipei/cpt/api/TimingPlan/pdf/SACN710
IACPN,SACPN10,"興隆路三段57,58號",GA0330,121.556016,25.000188,https://www.ttcx.dot.gov.taipei/cpt/api/TimingPlan/pdf/SACPN10
IACTV,SACTV10,木柵路四段159巷,GA0319,121.575678,24.99959,https://www.ttcx.dot.gov.taipei/cpt/api/TimingPlan/pdf/SACTV10
IADLD,SADLD10,羅斯福五段-萬隆街,GA0043,121.539572,25.000493,https://www.ttcx.dot.gov.taipei/cpt/api/TimingPlan/pdf/SADLD10
IADN7,SADN710,興隆路二段153巷,GN0098,121.548557,25.000406,https://www.ttcx.dot.gov.taipei/cpt/api/TimingPlan/pdf/SADN710
IAFNA,SAFNA10,興隆路二段203巷-興隆路二段153巷6弄,GN0098,121.549054,25.000711,https://www.ttcx.dot.gov.taipei/cpt/api/TimingPlan/pdf/SAFNA10
IAFNF,SAFNF10,興隆路二段-福興路,GS0016,121.549837,25.000798,https://www.ttcx.dot.gov.taipei/cpt/api/TimingPlan/pdf/SAFNF10
IAFT6,SAFT610,和平東四段67號(名門翠堤),GA0314,121.573166,25.000548,https://www.ttcx.dot.gov.taipei/cpt/api/TimingPlan/pdf/SAFT610
IAFXY,SAFXY10,新光路三段文和橋,GA0324,121.597462,25.000507,https://www.ttcx.dot.gov.taipei/cpt/api/TimingPlan/pdf/SAFXY10
IAGPE,SAGPE10,興隆路二段-辛亥路四段,GA0330,121.554592,25.000826,https://www.ttcx.dot.gov.taipei/cpt/api/TimingPlan/pdf/SAGPE10
IAINI,SAINI10,興隆路二段154巷,GN0098,121.550681,25.001328,https://www.ttcx.dot.gov.taipei/cpt/api/TimingPlan/pdf/SAINI10
IAKNL,SAKNL10,興隆路二段275巷,GS0016,121.55097,25.001543,https://www.ttcx.dot.gov.taipei/cpt/api/TimingPlan/pdf/SAKNL10
IALNW,SALNW10,仙岩路-興隆路二段154巷,GC0090,121.552515,25.001556,https://www.ttcx.dot.gov.taipei/cpt/api/TimingPlan/pdf/SALNW10
IALRK,SALRK10,萬樂街萬芳國小,GS0316,121.565611,25.001488,https://www.ttcx.dot.gov.taipei/cpt/api/TimingPlan/pdf/SALRK10
IAMLU,SAMLU10,興隆路一段-興順街,GN0098,121.543159,25.000615,https://www.ttcx.dot.gov.taipei/cpt/api/TimingPlan/pdf/SAMLU10
IAMXI,SAMXI10,木柵路五段文和橋,GA0324,121.594965,25.001582,https://www.ttcx.dot.gov.taipei/cpt/api/TimingPlan/pdf/SAMXI10
IANLT,SANLT10,興隆路一段-景明路,GN0098,121.542005,25.001865,https://www.ttcx.dot.gov.taipei/cpt/api/TimingPlan/pdf/SANLT10
IAPL9,SAPL910,羅斯福五段218巷,GA0043,121.538876,25.002175,https://www.ttcx.dot.gov.taipei/cpt/api/TimingPlan/pdf/SAPL910
IAPQT,SAPQT10,萬美街二段-21巷公訓中心,GS0315,121.561879,25.001954,https://www.ttcx.dot.gov.taipei/cpt/api/TimingPlan/pdf/SAPQT10
IAPR5,SAPR510,萬美街二段49號-和平東路四段66巷,GS0315,121.563097,25.002013,https://www.ttcx.dot.gov.taipei/cpt/api/TimingPlan/pdf/SAPR510
IAQPI,SAQPI10,辛亥路四段-222巷,GA0113,121.555411,25.002186,https://www.ttcx.dot.gov.taipei/cpt/api/TimingPlan/pdf/SAQPI10
IARSK,SARSK10,萬美街一段-萬安街,GA0319,121.570518,25.002254,https://www.ttcx.dot.gov.taipei/cpt/api/TimingPlan/pdf/SARSK10
IASL7,SASL710,羅斯福五段192巷,GA0043,121.538644,25.003539,https://www.ttcx.dot.gov.taipei/cpt/api/TimingPlan/pdf/SASL710
IASLQ,SASLQ10,興隆路一段83巷,GN0098,121.541642,25.002517,https://www.ttcx.dot.gov.taipei/cpt/api/TimingPlan/pdf/SASLQ10
IASRZ,SASRZ10,萬美街一段-萬美街一段19巷,GC0147,121.567967,25.002408,https://www.ttcx.dot.gov.taipei/cpt/api/TimingPlan/pdf/SASRZ10
IASST,SASST10,和平東四段-萬美街一段,GA0319,121.571916,25.002376,https://www.ttcx.dot.gov.taipei/cpt/api/TimingPlan/pdf/SASST10
IASUU,SASUU10,木柵路五段21巷(風動石),GA0324,121.581922,25.002392,https://www.ttcx.dot.gov.taipei/cpt/api/TimingPlan/pdf/SASUU10
IAWVC,SAWVC10,木柵路五段-新光路二段,GA0324,121.583965,25.002943,https://www.ttcx.dot.gov.taipei/cpt/api/TimingPlan/pdf/SAWVC10
IAXCS,SAXCS10,木柵路五段53號,GA0324,121.584788,25.00303,https://www.ttcx.dot.gov.taipei/cpt/api/TimingPlan/pdf/SAXCS10
IAXVS,SAXVS10,木柵路五段57號,GA0324,121.586554,25.003104,https://www.ttcx.dot.gov.taipei/cpt/api/TimingPlan/pdf/SAXVS10
IAZQY,SAZQY10,萬美街二段-萬寧街,GS0315,121.562777,25.003512,https://www.ttcx.dot.gov.taipei/cpt/api/TimingPlan/pdf/SAZQY10
IB3B0,SB3B010,興隆路三段-興隆路三段115巷,GA0330,121.562777,25.003512,https://www.ttcx.dot.gov.taipei/cpt/api/TimingPlan/pdf/SB3B010
IB5PL,SB5PL10,辛亥路四段-萬美街二段,GA0113,121.558153,25.006067,https://www.ttcx.dot.gov.taipei/cpt/api/TimingPlan/pdf/SB5PL10
IB6LK,SB6LK10,興隆路一段-萬盛街106巷,GN0097,121.540736,25.003865,https://www.ttcx.dot.gov.taipei/cpt/api/TimingPlan/pdf/SB6LK10
IB7KI,SB7KI10,汀州路四段-溪洲街(停車場東北側),GC0143,121.535558,25.004043,https://www.ttcx.dot.gov.taipei/cpt/api/TimingPlan/pdf/SB7KI10
IB9L8,SB9L810,興隆路一段-羅斯福五段,GA0043,121.538777,25.00436,https://www.ttcx.dot.gov.taipei/cpt/api/TimingPlan/pdf/SB9L810
IB9LL,SB9LL10,萬盛街102號,GN0098,121.540986,25.004352,https://www.ttcx.dot.gov.taipei/cpt/api/TimingPlan/pdf/SB9LL10
IBAKJ,SBAKJ10,汀州路四段-溪洲街(停車場西南側),GA0043,121.535661,25.00447,https://www.ttcx.dot.gov.taipei/cpt/api/TimingPlan/pdf/SBAKJ10
IBBKP,SBBKP10,羅斯福五段170巷萬福國小,GC0143,121.53646,25.004711,https://www.ttcx.dot.gov.taipei/cpt/api/TimingPlan/pdf/SBBKP10
IBEKK,SBEKK10,汀州路四段-溪洲街(停車場西北側),GA0043,121.535816,25.005129,https://www.ttcx.dot.gov.taipei/cpt/api/TimingPlan/pdf/SBEKK10
IBFRY,SBFRY10,和平東四段-萬寧街,GA0314,121.567768,25.005091,https://www.ttcx.dot.gov.taipei/cpt/api/TimingPlan/pdf/SBFRY10
IBGPV,SBGPV10,辛亥路四段130巷,GA0113,121.557297,25.005375,https://www.ttcx.dot.gov.taipei/cpt/api/TimingPlan/pdf/SBGPV10
IBHPW,SBHPW10,辛亥路四段166巷,GA0113,121.556818,25.004519,https://www.ttcx.dot.gov.taipei/cpt/api/TimingPlan/pdf/SBHPW10
IBIQF,SBIQF10,萬美街二段靈糧山莊旁,GS0315,121.559884,25.005636,https://www.ttcx.dot.gov.taipei/cpt/api/TimingPlan/pdf/SBIQF10
IBJQ9,SBJQ910,萬美街二段-興德路,GC0198,121.558805,25.00573,https://www.ttcx.dot.gov.taipei/cpt/api/TimingPlan/pdf/SBJQ910
IBQP7,SBQP710,辛亥路四段101巷,GA0113,121.558542,25.006661,https://www.ttcx.dot.gov.taipei/cpt/api/TimingPlan/pdf/SBQP710
IBWQ8,SBWQ810,辛亥路四段77巷,GA0113,121.558644,25.007392,https://www.ttcx.dot.gov.taipei/cpt/api/TimingPlan/pdf/SBWQ810
IBWUR,SBWUR10,LCS信義支線0+960(隧道外迴轉道前)-進城1,GS1010,121.581442,25.00744,https://www.ttcx.dot.gov.taipei/cpt/api/TimingPlan/pdf/SBWUR10
ICCKW,SCCKW10,羅斯福四段-萬盛街,GA0043,121.538218,25.007991,https://www.ttcx.dot.gov.taipei/cpt/api/TimingPlan/pdf/SCCKW10
ICDKQ,SCDKQ10,汀州路四段師大分部,GA0043,121.536788,25.009513,https://www.ttcx.dot.gov.taipei/cpt/api/TimingPlan/pdf/SCDKQ10
ICNKM,SCNKM10,基隆路四段-汀州路四段,GS0042,121.536299,25.01095,https://www.ttcx.dot.gov.taipei/cpt/api/TimingPlan/pdf/SCNKM10
ICPKT,SCPKT10,基隆路四段-羅斯福四段,GS0042,121.537152,25.011119,https://www.ttcx.dot.gov.taipei/cpt/api/TimingPlan/pdf/SCPKT10
ICPR9,SCPR910,臥龍街-和平東路三段464巷,GN0092,121.563802,25.011038,https://www.ttcx.dot.gov.taipei/cpt/api/TimingPlan/pdf/SCPR910
ICQLL,SCQLL10,羅斯福四段113巷-基隆路四段41巷,GA0272,121.540967,25.011349,https://www.ttcx.dot.gov.taipei/cpt/api/TimingPlan/pdf/SCQLL10
ICTIZ,SCTIZ10,水源路-思源街,GA0265,121.528327,25.011809,https://www.ttcx.dot.gov.taipei/cpt/api/TimingPlan/pdf/SCTIZ10
ICTLQ,SCTLQ10,基隆路四段41巷68弄6號(台科大宿舍門口),GC0018,121.541625,25.01171,https://www.ttcx.dot.gov.taipei/cpt/api/TimingPlan/pdf/SCTLQ10
ICUR7,SCUR710,"和平東三段627,631巷",GN0092,121.563469,25.011789,https://www.ttcx.dot.gov.taipei/cpt/api/TimingPlan/pdf/SCUR710
ICZKG,SCZKG10,汀州路三段-羅斯福四段136巷,GS0042,121.535256,25.012579,https://www.ttcx.dot.gov.taipei/cpt/api/TimingPlan/pdf/SCZKG10
ICZLY,SCZLY10,芳蘭路-基隆路三段155巷,GA0272,121.543252,25.012821,https://www.ttcx.dot.gov.taipei/cpt/api/TimingPlan/pdf/SCZLY10
ID5UJ,SD5UJ10,LCS信義支線1+110(文山隧道出口)-出城4,GS1440,121.580362,25.012656,https://www.ttcx.dot.gov.taipei/cpt/api/TimingPlan/pdf/SD5UJ10
ID7LC,SD7LC10,基隆路四段-144巷,GS0042,121.539528,25.013105,https://www.ttcx.dot.gov.taipei/cpt/api/TimingPlan/pdf/SD7LC10
ID7UM,SD7UM10,LCS信義支線1+110(文山隧道入口)-進城2,GS1020,121.580884,25.012885,https://www.ttcx.dot.gov.taipei/cpt/api/TimingPlan/pdf/SD7UM10
ID8JE,SD8JE10,思源街永福橋頭(調撥車道專用),GA0265,121.529919,25.013311,https://www.ttcx.dot.gov.taipei/cpt/api/TimingPlan/pdf/SD8JE10
ID9JF,SD9JF10,思源街永福橋頭,GA0265,121.530038,25.013374,https://www.ttcx.dot.gov.taipei/cpt/api/TimingPlan/pdf/SD9JF10
ID9R8,SD9R810,臥龍街-富陽街157巷,GN0274,121.556297,25.01856,https://www.ttcx.dot.gov.taipei/cpt/api/TimingPlan/pdf/SD9R810
IDCKB,SDCKB10,汀州路三段-羅斯福四段90巷,GS0042,121.534477,25.013448,https://www.ttcx.dot.gov.taipei/cpt/api/TimingPlan/pdf/SDCKB10
IDCLI,SDCLI10,基隆路四段科技大學,GS0042,121.540374,25.013833,https://www.ttcx.dot.gov.taipei/cpt/api/TimingPlan/pdf/SDCLI10
IDENZ,SDENZ10,辛亥路三段停車場,GA0273,121.551931,25.014901,https://www.ttcx.dot.gov.taipei/cpt/api/TimingPlan/pdf/SDENZ10
IDFJZ,SDFJZ10,汀州路三段-羅斯福四段52巷,GA0265,121.533251,25.014383,https://www.ttcx.dot.gov.taipei/cpt/api/TimingPlan/pdf/SDFJZ10
IDFQV,SDFQV10,"和平東三段632,636巷",GN0092,121.563385,25.012945,https://www.ttcx.dot.gov.taipei/cpt/api/TimingPlan/pdf/SDFQV10
IDJJV,SDJJV10,汀州路三段-羅斯福四段24巷,GA0265,121.532521,25.014864,https://www.ttcx.dot.gov.taipei/cpt/api/TimingPlan/pdf/SDJJV10
IDJNS,SDJNS10,辛亥路三段284巷,GA0273,121.550686,25.015682,https://www.ttcx.dot.gov.taipei/cpt/api/TimingPlan/pdf/SDJNS10
IDKIK,SDKIK10,水源路-永春街200巷,GA0265,121.525983,25.01505,https://www.ttcx.dot.gov.taipei/cpt/api/TimingPlan/pdf/SDKIK10
IDKJT,SDKJT10,汀州路三段-思源街,GA0265,121.532225,25.015082,https://www.ttcx.dot.gov.taipei/cpt/api/TimingPlan/pdf/SDKJT10
IDMMS,SDMMS10,芳蘭路-長興街(自來水廠),GA0272,121.546969,25.015353,https://www.ttcx.dot.gov.taipei/cpt/api/TimingPlan/pdf/SDMMS10
IDPJN,SDPJN10,汀州路三段-羅斯福三段284巷,GA0265,121.531356,25.015681,https://www.ttcx.dot.gov.taipei/cpt/api/TimingPlan/pdf/SDPJN10
IDQLW,SDQLW10,"基隆路三段156,155巷",GA0077,121.542591,25.015721,https://www.ttcx.dot.gov.taipei/cpt/api/TimingPlan/pdf/SDQLW10
IDSNI,SDSNI10,辛亥路三段-青峰里公園,GA0273,121.55047,25.016126,https://www.ttcx.dot.gov.taipei/cpt/api/TimingPlan/pdf/SDSNI10
IDTCG,SDTCG10,環河南三段-華中橋上,GA0237,121.495611,25.016328,https://www.ttcx.dot.gov.taipei/cpt/api/TimingPlan/pdf/SDTCG10
IDTJT,SDTJT10,水源路31巷,GA0018,121.523984,25.018132,https://www.ttcx.dot.gov.taipei/cpt/api/TimingPlan/pdf/SDTJT10
IDTJW,SDTJW10,羅斯福三段-新生南三段,GA0063,121.532676,25.016353,https://www.ttcx.dot.gov.taipei/cpt/api/TimingPlan/pdf/SDTJW10
IDUCG,SDUCG10,環河南三段-萬大路,GA0237,121.495672,25.016707,https://www.ttcx.dot.gov.taipei/cpt/api/TimingPlan/pdf/SDUCG10
IDUQI,SDUQI10,和平東三段530巷,GN0092,121.561562,25.015163,https://www.ttcx.dot.gov.taipei/cpt/api/TimingPlan/pdf/SDUQI10
IDWQI,SDWQI10,"和平東三段596,599號",GN0092,121.560547,25.016305,https://www.ttcx.dot.gov.taipei/cpt/api/TimingPlan/pdf/SDWQI10
IDXJC,SDXJC10,汀州路三段111巷,GA0265,121.529588,25.016924,https://www.ttcx.dot.gov.taipei/cpt/api/TimingPlan/pdf/SDXJC10
IDYJC,SDYJC10,信義路二段-金山南一段,GA0052,121.527273,25.034049,https://www.ttcx.dot.gov.taipei/cpt/api/TimingPlan/pdf/SDYJC10
IDYJZ,SDYJZ10,新生南三段98巷,GA0063,121.533303,25.016992,https://www.ttcx.dot.gov.taipei/cpt/api/TimingPlan/pdf/SDYJZ10
IDYN9,SDYN910,辛亥路三段157巷,GS0052,121.549057,25.017007,https://www.ttcx.dot.gov.taipei/cpt/api/TimingPlan/pdf/SDYN910
IDZMB,SDZMB10,基隆路三段長興街,GA0077,121.544332,25.017186,https://www.ttcx.dot.gov.taipei/cpt/api/TimingPlan/pdf/SDZMB10
IE9NT,SE9NT10,安居街108巷-臥龍街151巷,GC0005,121.552082,25.017799,https://www.ttcx.dot.gov.taipei/cpt/api/TimingPlan/pdf/SE9NT10
IEBIW,SEBIW10,羅斯福三段244巷(台電大樓),GA0063,121.527662,25.018348,https://www.ttcx.dot.gov.taipei/cpt/api/TimingPlan/pdf/SEBIW10
IEBIX,SEBIX10,辛亥路一段-汀州路三段,GN0041,121.527652,25.018348,https://www.ttcx.dot.gov.taipei/cpt/api/TimingPlan/pdf/SEBIX10
IEBJI,SEBJI10,羅斯福三段269巷,GA0063,121.530654,25.018292,https://www.ttcx.dot.gov.taipei/cpt/api/TimingPlan/pdf/SEBJI10
IEBQB,SEBQB10,和平東三段416巷(出城),GN0092,121.559208,25.018124,https://www.ttcx.dot.gov.taipei/cpt/api/TimingPlan/pdf/SEBQB10
IECDM,SECDM10,青年路-萬大路423巷,GA0245,121.501584,25.018556,https://www.ttcx.dot.gov.taipei/cpt/api/TimingPlan/pdf/SECDM10
IECNL,SECNL10,臥龍街151巷-辛亥路三段157巷,GN0274,121.550876,25.018327,https://www.ttcx.dot.gov.taipei/cpt/api/TimingPlan/pdf/SECNL10
IECP8,SECP810,市府路世貿中心東門,GC0023,121.553759,25.018298,https://www.ttcx.dot.gov.taipei/cpt/api/TimingPlan/pdf/SECP810
IECPX,SECPX10,臥龍街-和平東三段406巷,GN0274,121.557376,25.018465,https://www.ttcx.dot.gov.taipei/cpt/api/TimingPlan/pdf/SECPX10
IECQB,SECQB10,和平東三段463巷(入城),GN0092,121.559208,25.018278,https://www.ttcx.dot.gov.taipei/cpt/api/TimingPlan/pdf/SECQB10
IEEPF,SEEPF10,和平東三段-臥龍街318號,GN0092,121.55491,25.018637,https://www.ttcx.dot.gov.taipei/cpt/api/TimingPlan/pdf/SEEPF10
IEEPS,SEEPS10,臥龍街-富陽街,GN0274,121.556861,25.018494,https://www.ttcx.dot.gov.taipei/cpt/api/TimingPlan/pdf/SEEPS10
IEFMN,SEFMN10,基隆路三段-辛亥路二段,GS0091,121.546649,25.019146,https://www.ttcx.dot.gov.taipei/cpt/api/TimingPlan/pdf/SEFMN10
IEFPC,SEFPC10,臥龍街-樂業街,GN0274,121.554494,25.018675,https://www.ttcx.dot.gov.taipei/cpt/api/TimingPlan/pdf/SEFPC10
IEGCQ,SEGCQ10,萬大路534巷(調撥車道專用),GC0054,121.497298,25.019392,https://www.ttcx.dot.gov.taipei/cpt/api/TimingPlan/pdf/SEGCQ10
IEGQ5,SEGQ510,石牌路二段-立農街二段,GN0214,121.558389,25.01885,https://www.ttcx.dot.gov.taipei/cpt/api/TimingPlan/pdf/SEGQ510
IEGQ6,SEGQ610,信義路五段-市府路,GC0033,121.558389,25.018877,https://www.ttcx.dot.gov.taipei/cpt/api/TimingPlan/pdf/SEGQ610
IEGSM,SEGSM10,吳興街487號(公車總站),GC0074,121.570932,25.018829,https://www.ttcx.dot.gov.taipei/cpt/api/TimingPlan/pdf/SEGSM10
IEHBW,SEHBW10,環河南三段327號,GA0237,121.493136,25.019252,https://www.ttcx.dot.gov.taipei/cpt/api/TimingPlan/pdf/SEHBW10
IEHK7,SEHK710,新生南三段86巷,GA0063,121.533758,25.019121,https://www.ttcx.dot.gov.taipei/cpt/api/TimingPlan/pdf/SEHK710
IEJEL,SEJEL10,桂林路-西寧南路,GN0007,121.506294,25.019442,https://www.ttcx.dot.gov.taipei/cpt/api/TimingPlan/pdf/SEJEL10
IELE8,SELE810,水源路-青年路,GA0245,121.504344,25.019855,https://www.ttcx.dot.gov.taipei/cpt/api/TimingPlan/pdf/SELE810
IELJA,SELJA10,辛亥路一段-羅斯福三段,GC0124,121.529263,25.019696,https://www.ttcx.dot.gov.taipei/cpt/api/TimingPlan/pdf/SELJA10
IELP6,SELP610,安居街-樂業街,GN0092,121.553448,25.019681,https://www.ttcx.dot.gov.taipei/cpt/api/TimingPlan/pdf/SELP610
IELPW,SELPW10,"和平東三段464,509巷",GN0092,121.55756,25.019638,https://www.ttcx.dot.gov.taipei/cpt/api/TimingPlan/pdf/SELPW10
IELPX,SELPX10,和平東三段391巷,GN0092,121.55755,25.019629,https://www.ttcx.dot.gov.taipei/cpt/api/TimingPlan/pdf/SELPX10
IEMPW,SEMPW10,和平東三段406巷,GN0092,121.558922,25.018369,https://www.ttcx.dot.gov.taipei/cpt/api/TimingPlan/pdf/SEMPW10
IENCU,SENCU10,萬大路93巷,GC0054,121.497766,25.020121,https://www.ttcx.dot.gov.taipei/cpt/api/TimingPlan/pdf/SENCU10
IEPTX,SEPTX10,LCS信義支線2+665(文山隧道入口)-出城3,GS1430,121.577475,25.020068,https://www.ttcx.dot.gov.taipei/cpt/api/TimingPlan/pdf/SEPTX10
IEQHV,SEQHV10,師大路-水源路,GA0018,121.522716,25.020343,https://www.ttcx.dot.gov.taipei/cpt/api/TimingPlan/pdf/SEQHV10
IEQTZ,SEQTZ10,LCS信義支線2+645(文山隧道出口)-進城3,GS1030,121.577945,25.0201,https://www.ttcx.dot.gov.taipei/cpt/api/TimingPlan/pdf/SEQTZ10
IERK8,SERK810,新生南三段56巷,GA0063,121.534021,25.020384,https://www.ttcx.dot.gov.taipei/cpt/api/TimingPlan/pdf/SERK810
IERNX,SERNX10,樂業街-臥龍街151巷,GN0274,121.552678,25.020306,https://www.ttcx.dot.gov.taipei/cpt/api/TimingPlan/pdf/SERNX10
IES3J,SES3J10,師大路39巷,GN0041,121.5286,25.024637,https://www.ttcx.dot.gov.taipei/cpt/api/TimingPlan/pdf/SES3J10
IEUIG,SEUIG10,汀州路二段-師大路,GS0005,121.525394,25.020947,https://www.ttcx.dot.gov.taipei/cpt/api/TimingPlan/pdf/SEUIG10
IEUPN,SEUPN10,和平東三段-富陽街,GN0092,121.556514,25.020581,https://www.ttcx.dot.gov.taipei/cpt/api/TimingPlan/pdf/SEUPN10
IEVDS,SEVDS10,青年路152巷,GA0245,121.502537,25.021405,https://www.ttcx.dot.gov.taipei/cpt/api/TimingPlan/pdf/SEVDS10
IEVIV,SEVIV10,羅斯福三段-師大路,GN0041,121.528019,25.02082,https://www.ttcx.dot.gov.taipei/cpt/api/TimingPlan/pdf/SEVIV10
IEWCJ,SEWCJ10,寶興街-萬大路424巷,GA0235,121.496104,25.02135,https://www.ttcx.dot.gov.taipei/cpt/api/TimingPlan/pdf/SEWCJ10
IEWM5,SEWM510,辛亥路二段-復興南二段,GN0068,121.543359,25.021244,https://www.ttcx.dot.gov.taipei/cpt/api/TimingPlan/pdf/SEWM510
IEWMV,SEWMV10,和平東二段76巷30弄-龍門國中後門,GA0067,121.539357,25.023109,https://www.ttcx.dot.gov.taipei/cpt/api/TimingPlan/pdf/SEWMV10
IEWN8,SEWN810,基隆路三段-敦化南二段,GS0091,121.548698,25.020953,https://www.ttcx.dot.gov.taipei/cpt/api/TimingPlan/pdf/SEWN810
IEXCZ,SEXCZ10,萬大路-東園街,GC0054,121.498554,25.02141,https://www.ttcx.dot.gov.taipei/cpt/api/TimingPlan/pdf/SEXCZ10
IEXLL,SEXLL10,辛亥路二段171巷,GN0068,121.54108,25.021315,https://www.ttcx.dot.gov.taipei/cpt/api/TimingPlan/pdf/SEXLL10
IEZCI,SEZCI10,寶興街-長泰街,GC0138,121.49597,25.021797,https://www.ttcx.dot.gov.taipei/cpt/api/TimingPlan/pdf/SEZCI10
IEZPT,SEZPT10,和平東三段-安居街,GN0092,121.555547,25.021515,https://www.ttcx.dot.gov.taipei/cpt/api/TimingPlan/pdf/SEZPT10
IF5DM,SF5DM10,萬青街-萬大路423巷,GA0245,121.501588,25.021941,https://www.ttcx.dot.gov.taipei/cpt/api/TimingPlan/pdf/SF5DM10
IF6DT,SF6DT10,青年路106巷,GA0245,121.502589,25.022037,https://www.ttcx.dot.gov.taipei/cpt/api/TimingPlan/pdf/SF6DT10
IF6JQ,SF6JQ10,辛亥路一段-泰順街,GA0063,121.531858,25.021899,https://www.ttcx.dot.gov.taipei/cpt/api/TimingPlan/pdf/SF6JQ10
IF6KT,SF6KT10,辛亥路二段-建國南二段(南側),GS0266,121.537207,25.022025,https://www.ttcx.dot.gov.taipei/cpt/api/TimingPlan/pdf/SF6KT10
IF7CH,SF7CH10,寶興街222巷,GC0138,121.495819,25.022249,https://www.ttcx.dot.gov.taipei/cpt/api/TimingPlan/pdf/SF7CH10
IF8CW,SF8CW10,東園街-長泰街,GA0236,121.498171,25.022251,https://www.ttcx.dot.gov.taipei/cpt/api/TimingPlan/pdf/SF8CW10
IF8I7,SF8I710,汀州路二段-金門街,GS0005,121.523933,25.022279,https://www.ttcx.dot.gov.taipei/cpt/api/TimingPlan/pdf/SF8I710
IF8IM,SF8IM10,羅斯福三段-浦城街,GN0041,121.526321,25.02228,https://www.ttcx.dot.gov.taipei/cpt/api/TimingPlan/pdf/SF8IM10
IF8JU,SF8JU10,辛亥路一段139巷,GA0063,121.532414,25.022222,https://www.ttcx.dot.gov.taipei/cpt/api/TimingPlan/pdf/SF8JU10
IF9H8,SF9H810,汀州路二段-牯嶺街,GN0259,121.51903,25.022613,https://www.ttcx.dot.gov.taipei/cpt/api/TimingPlan/pdf/SF9H810
IF9JY,SF9JY10,辛亥路一段-溫州街,GA0063,121.533178,25.022391,https://www.ttcx.dot.gov.taipei/cpt/api/TimingPlan/pdf/SF9JY10
IF9KB,SF9KB10,辛亥路一段-新生南三段,GA0063,121.534426,25.022386,https://www.ttcx.dot.gov.taipei/cpt/api/TimingPlan/pdf/SF9KB10
IF9KW,SF9KW10,辛亥路二段-建國南二段,GS0266,121.537577,25.022267,https://www.ttcx.dot.gov.taipei/cpt/api/TimingPlan/pdf/SF9KW10
IF9M5,SF9M510,故宮路-47巷,GN0224,121.547418,25.096315,https://www.ttcx.dot.gov.taipei/cpt/api/TimingPlan/pdf/SF9M510
IF9NH,SF9NH10,基隆路三段-樂業街,GS0091,121.55027,25.022338,https://www.ttcx.dot.gov.taipei/cpt/api/TimingPlan/pdf/SF9NH10
IF9PD,SF9PD10,和平東三段-信安街,GN0092,121.554649,25.022385,https://www.ttcx.dot.gov.taipei/cpt/api/TimingPlan/pdf/SF9PD10
IFACG,SFACG10,寶興街140巷,GA0235,121.495696,25.022746,https://www.ttcx.dot.gov.taipei/cpt/api/TimingPlan/pdf/SFACG10
IFAD9,SFAD910,萬大路-長泰街,GC0054,121.499372,25.022644,https://www.ttcx.dot.gov.taipei/cpt/api/TimingPlan/pdf/SFAD910
IFBEZ,SFBEZ10,水源路-國興路,GA0251,121.508517,25.02264,https://www.ttcx.dot.gov.taipei/cpt/api/TimingPlan/pdf/SFBEZ10
IFCCU,SFCCU10,東園街154巷,GC0073,121.497817,25.02301,https://www.ttcx.dot.gov.taipei/cpt/api/TimingPlan/pdf/SFCCU10
IFCDL,SFCDL10,長泰街-萬青街,GA0245,121.501513,25.023007,https://www.ttcx.dot.gov.taipei/cpt/api/TimingPlan/pdf/SFCDL10
IFCKJ,SFCKJ10,新生南三段22巷,GA0063,121.534622,25.023993,https://www.ttcx.dot.gov.taipei/cpt/api/TimingPlan/pdf/SFCKJ10
IFCMQ,SFCMQ10,臥龍街-敦化南二段200巷,GA0067,121.546621,25.022908,https://www.ttcx.dot.gov.taipei/cpt/api/TimingPlan/pdf/SFCMQ10
IFCPG,SFCPG10,信安街-吳興街220巷59弄,GN0289,121.555092,25.022782,https://www.ttcx.dot.gov.taipei/cpt/api/TimingPlan/pdf/SFCPG10
IFDGM,SFDGM10,廈門街114巷,GN0259,121.516525,25.02306,https://www.ttcx.dot.gov.taipei/cpt/api/TimingPlan/pdf/SFDGM10
IFDGP,SFDGP10,重慶南三段-廈門街114巷,GN0259,121.516852,25.023044,https://www.ttcx.dot.gov.taipei/cpt/api/TimingPlan/pdf/SFDGP10
IFDIC,SFDIC10,重慶南三段-廈門街74巷,GN0259,121.516572,25.025017,https://www.ttcx.dot.gov.taipei/cpt/api/TimingPlan/pdf/SFDIC10
IFDP9,SFDP910,和平東三段-嘉興街,GN0092,121.553969,25.023019,https://www.ttcx.dot.gov.taipei/cpt/api/TimingPlan/pdf/SFDP910
IFFGT,SFFGT10,廈門街113巷-牯嶺街,GN0259,121.517418,25.023431,https://www.ttcx.dot.gov.taipei/cpt/api/TimingPlan/pdf/SFFGT10
IFFH8,SFFH810,廈門街-牯嶺街,GN0257,121.519033,25.023362,https://www.ttcx.dot.gov.taipei/cpt/api/TimingPlan/pdf/SFFH810
IFFIE,SFFIE10,羅斯福三段-金門街,GN0041,121.525108,25.023412,https://www.ttcx.dot.gov.taipei/cpt/api/TimingPlan/pdf/SFFIE10
IFFIF,SFFIF10,羅斯福二段-南昌路二段,GN0041,121.524447,25.024327,https://www.ttcx.dot.gov.taipei/cpt/api/TimingPlan/pdf/SFFIF10
IFFJ5,SFFJ510,師大路80巷,GN0041,121.528457,25.023292,https://www.ttcx.dot.gov.taipei/cpt/api/TimingPlan/pdf/SFFJ510
IFGCF,SFGCF10,寶興街-德昌街,GA0235,121.495422,25.023641,https://www.ttcx.dot.gov.taipei/cpt/api/TimingPlan/pdf/SFGCF10
IFGCS,SFGCS10,東園街140巷,GA0236,121.497552,25.02358,https://www.ttcx.dot.gov.taipei/cpt/api/TimingPlan/pdf/SFGCS10
IFGDU,SFGDU10,青年路68巷,GA0245,121.502764,25.023571,https://www.ttcx.dot.gov.taipei/cpt/api/TimingPlan/pdf/SFGDU10
IFGSF,SFGSF10,吳興街-松仁路,GS0450,121.5698,25.023377,https://www.ttcx.dot.gov.taipei/cpt/api/TimingPlan/pdf/SFGSF10
IFGTN,SFGTN10,LCS信義支線2+795(象山隧道出口)-出城2,GS1420,121.576105,25.023302,https://www.ttcx.dot.gov.taipei/cpt/api/TimingPlan/pdf/SFGTN10
IFHKV,SFHKV10,建國南一段65巷,GN0503,121.538014,25.040773,https://www.ttcx.dot.gov.taipei/cpt/api/TimingPlan/pdf/SFHKV10
IFHTR,SFHTR10,LCS信義支線2+820(象山隧道入口)-進城4,GS1040,121.5765,25.023497,https://www.ttcx.dot.gov.taipei/cpt/api/TimingPlan/pdf/SFHTR10
IFIGP,SFIGP10,重慶南三段146巷,GN0259,121.516835,25.023884,https://www.ttcx.dot.gov.taipei/cpt/api/TimingPlan/pdf/SFIGP10
IFJJN,SFJJN10,羅斯福二段-同安街,GN0041,121.523329,25.02582,https://www.ttcx.dot.gov.taipei/cpt/api/TimingPlan/pdf/SFJJN10
IFKDE,SFKDE10,萬大路329巷,GA0008,121.50022,25.024194,https://www.ttcx.dot.gov.taipei/cpt/api/TimingPlan/pdf/SFKDE10
IFKEY,SFKEY10,國興路1巷,GA0251,121.508285,25.024121,https://www.ttcx.dot.gov.taipei/cpt/api/TimingPlan/pdf/SFKEY10
IFKHP,SFKHP10,汀州路二段-同安街,GC0169,121.521711,25.024093,https://www.ttcx.dot.gov.taipei/cpt/api/TimingPlan/pdf/SFKHP10
IFKPS,SFKPS10,信安街-信安街95巷,GN0289,121.556897,25.024062,https://www.ttcx.dot.gov.taipei/cpt/api/TimingPlan/pdf/SFKPS10
IFLBG,SFLBG10,西園路二段-環河南三段,GA0006,121.490868,25.02446,https://www.ttcx.dot.gov.taipei/cpt/api/TimingPlan/pdf/SFLBG10
IFLCQ,SFLCQ10,東園街-德昌街,GA0236,121.497169,25.024412,https://www.ttcx.dot.gov.taipei/cpt/api/TimingPlan/pdf/SFLCQ10
IFLFJ,SFLFJ10,中華路二段古亭國中,GC0037,121.51115,25.024364,https://www.ttcx.dot.gov.taipei/cpt/api/TimingPlan/pdf/SFLFJ10
IFLPI,SFLPI10,崇德街-嘉興街,GN0289,121.555836,25.023996,https://www.ttcx.dot.gov.taipei/cpt/api/TimingPlan/pdf/SFLPI10
IFMDN,SFMDN10,"萬大路277巷44,37弄(單閃)",GA0008,121.501747,25.024442,https://www.ttcx.dot.gov.taipei/cpt/api/TimingPlan/pdf/SFMDN10
IFMHJ,SFMHJ10,汀州路二段-廈門街81巷28弄(強恕中學),GS0322,121.520267,25.024757,https://www.ttcx.dot.gov.taipei/cpt/api/TimingPlan/pdf/SFMHJ10
IFMNV,SFMNV10,和平東三段-基隆路二段,GS0091,121.552538,25.024343,https://www.ttcx.dot.gov.taipei/cpt/api/TimingPlan/pdf/SFMNV10
IFMPR,SFMPR10,信安街-吳興街156巷,GN0289,121.558106,25.028727,https://www.ttcx.dot.gov.taipei/cpt/api/TimingPlan/pdf/SFMPR10
IFNFC,SFNFC10,中華路二段416巷--萬大路277巷33弄,GA0244,121.501696,25.026498,https://www.ttcx.dot.gov.taipei/cpt/api/TimingPlan/pdf/SFNFC10
IFNFE,SFNFE10,中華路二段-寧波西街,GA0250,121.51014,25.024639,https://www.ttcx.dot.gov.taipei/cpt/api/TimingPlan/pdf/SFNFE10
IFNN7,SFNN710,和平東三段-敦化南二段,GS0091,121.548724,25.024555,https://www.ttcx.dot.gov.taipei/cpt/api/TimingPlan/pdf/SFNN710
IFNNH,SFNNH10,和平東三段-安和路二段,GS0091,121.550319,25.024468,https://www.ttcx.dot.gov.taipei/cpt/api/TimingPlan/pdf/SFNNH10
IFPHF,SFPHF10,汀州路二段219號(河堤國小),GC0119,121.523074,25.023014,https://www.ttcx.dot.gov.taipei/cpt/api/TimingPlan/pdf/SFPHF10
IFPMQ,SFPMQ10,和平東二段-臥龍街,GA0067,121.546683,25.024671,https://www.ttcx.dot.gov.taipei/cpt/api/TimingPlan/pdf/SFPMQ10
IFQM6,SFQM610,和平東二段-復興南二段,GA0270,121.543424,25.024855,https://www.ttcx.dot.gov.taipei/cpt/api/TimingPlan/pdf/SFQM610
IFQQF,SFQQF10,樂利路45巷,GN0276,121.551669,25.02665,https://www.ttcx.dot.gov.taipei/cpt/api/TimingPlan/pdf/SFQQF10
IFRCN,SFRCN10,東園街-民和街,GA0236,121.496825,25.025126,https://www.ttcx.dot.gov.taipei/cpt/api/TimingPlan/pdf/SFRCN10
IFRVV,SFRVV10,和平東二段175巷,GA0270,121.587071,25.024716,https://www.ttcx.dot.gov.taipei/cpt/api/TimingPlan/pdf/SFRVV10
IFSE5,SFSE510,青年路--西藏路125巷,GA0245,121.503722,25.025175,https://www.ttcx.dot.gov.taipei/cpt/api/TimingPlan/pdf/SFSE510
IFSFX,SFSFX10,詔安街-泉州街,GC0195,121.513135,25.025179,https://www.ttcx.dot.gov.taipei/cpt/api/TimingPlan/pdf/SFSFX10
IFTDF,SFTDF10,萬大路-德昌街,GA0008,121.500433,25.025358,https://www.ttcx.dot.gov.taipei/cpt/api/TimingPlan/pdf/SFTDF10
IFTGT,SFTGT10,汀州路二段-廈門街,GN0259,121.517446,25.025408,https://www.ttcx.dot.gov.taipei/cpt/api/TimingPlan/pdf/SFTGT10
IFTLG,SFTLG10,和平東二段107巷,GA0067,121.540275,25.02529,https://www.ttcx.dot.gov.taipei/cpt/api/TimingPlan/pdf/SFTLG10
IFTLH,SFTLH10,和平東二段瑞安街,GA0067,121.538839,25.025476,https://www.ttcx.dot.gov.taipei/cpt/api/TimingPlan/pdf/SFTLH10
IFTLI,SFTLI10,中華路二段國興路,GA0250,121.509151,25.024976,https://www.ttcx.dot.gov.taipei/cpt/api/TimingPlan/pdf/SFTLI10
IFTLK,SFTLK10,吳興街220巷北醫癌症醫院大樓,GC0055,121.540909,25.025261,https://www.ttcx.dot.gov.taipei/cpt/api/TimingPlan/pdf/SFTLK10
IFUED,SFUED10,青年路-30巷(青年社區),GA0245,121.504995,25.025601,https://www.ttcx.dot.gov.taipei/cpt/api/TimingPlan/pdf/SFUED10
IFUHV,SFUHV10,同安街-南昌路二段,GS0262,121.522767,25.025434,https://www.ttcx.dot.gov.taipei/cpt/api/TimingPlan/pdf/SFUHV10
IFVBG,SFVBG10,萬大路423巷光仁國小,GC0054,121.490724,25.025769,https://www.ttcx.dot.gov.taipei/cpt/api/TimingPlan/pdf/SFVBG10
IFVGM,SFVGM10,汀州路二段-重慶南三段,GN0259,121.516377,25.025673,https://www.ttcx.dot.gov.taipei/cpt/api/TimingPlan/pdf/SFVGM10
IFVKW,SFVKW10,和平東二段-建國南二段,GA0063,121.537671,25.025634,https://www.ttcx.dot.gov.taipei/cpt/api/TimingPlan/pdf/SFVKW10
IFWBS,SFWBS10,西園路二段光復橋頭,GA0006,121.492498,25.025845,https://www.ttcx.dot.gov.taipei/cpt/api/TimingPlan/pdf/SFWBS10
IFWCL,SFWCL10,東園街73巷,GA0236,121.496462,25.025913,https://www.ttcx.dot.gov.taipei/cpt/api/TimingPlan/pdf/SFWCL10
IFWEX,SFWEX10,中華路二段409巷,GA0250,121.508164,25.025855,https://www.ttcx.dot.gov.taipei/cpt/api/TimingPlan/pdf/SFWEX10
IFWFG,SFWFG10,寧波西街-詔安街,GN0243,121.510542,25.025892,https://www.ttcx.dot.gov.taipei/cpt/api/TimingPlan/pdf/SFWFG10
IFWS9,SFWS910,松仁路吳興國小,GC0170,121.56907,25.025409,https://www.ttcx.dot.gov.taipei/cpt/api/TimingPlan/pdf/SFWS910
IFXC8,SFXC810,寶興街-80巷,GA0235,121.494332,25.026019,https://www.ttcx.dot.gov.taipei/cpt/api/TimingPlan/pdf/SFXC810
IFXNS,SFXNS10,樂利路-通化街,GN0276,121.55198,25.025852,https://www.ttcx.dot.gov.taipei/cpt/api/TimingPlan/pdf/SFXNS10
IFYDZ,SFYDZ10,西園路二段東園街右轉道,GS0276,121.495426,25.028113,https://www.ttcx.dot.gov.taipei/cpt/api/TimingPlan/pdf/SFYDZ10
IFYEM,SFYEM10,青年路-國興路,GN0243,121.5065,25.026077,https://www.ttcx.dot.gov.taipei/cpt/api/TimingPlan/pdf/SFYEM10
IFYKD,SFYKD10,和平東一段-新生南二段,GA0063,121.534868,25.026023,https://www.ttcx.dot.gov.taipei/cpt/api/TimingPlan/pdf/SFYKD10
IFYQL,SFYQL10,吳興街220巷-信安街67巷,GC0055,121.560888,25.025927,https://www.ttcx.dot.gov.taipei/cpt/api/TimingPlan/pdf/SFYQL10
IFZDB,SFZDB10,民和街14號(單閃),GA0008,121.499783,25.026308,https://www.ttcx.dot.gov.taipei/cpt/api/TimingPlan/pdf/SFZDB10
IFZDF,SFZDF10,萬大路-民和街,GA0008,121.500457,25.026342,https://www.ttcx.dot.gov.taipei/cpt/api/TimingPlan/pdf/SFZDF10
IFZGY,SFZGY10,汀州路二段-泉州街,GC0195,121.513962,25.026232,https://www.ttcx.dot.gov.taipei/cpt/api/TimingPlan/pdf/SFZGY10
IFZK6,SFZK610,和平東一段-溫州街,GA0056,121.53362,25.026172,https://www.ttcx.dot.gov.taipei/cpt/api/TimingPlan/pdf/SFZK610
IFZM5,SFZM510,"復興南二段160,171巷",GA0076,121.54345,25.026201,https://www.ttcx.dot.gov.taipei/cpt/api/TimingPlan/pdf/SFZM510
IFZPV,SFZPV10,信安街-信安街67巷,GN0241,121.55747,25.026094,https://www.ttcx.dot.gov.taipei/cpt/api/TimingPlan/pdf/SFZPV10
IG5JR,SG5JR10,和平東一段-泰順街,GA0056,121.5316,25.026315,https://www.ttcx.dot.gov.taipei/cpt/api/TimingPlan/pdf/SG5JR10
IG5PS,SG5PS10,嘉興街-嘉興街181巷,GN0241,121.556951,25.026236,https://www.ttcx.dot.gov.taipei/cpt/api/TimingPlan/pdf/SG5PS10
IG6DR,SG6DR10,西藏路125巷新和國小,GC0125,121.502202,25.02657,https://www.ttcx.dot.gov.taipei/cpt/api/TimingPlan/pdf/SG6DR10
IG6FH,SG6FH10,寧波西街-181巷(單閃),GN0243,121.510773,25.026613,https://www.ttcx.dot.gov.taipei/cpt/api/TimingPlan/pdf/SG6FH10
IG6FR,SG6FR10,汀州路一段三元街212巷,GS0033,121.512234,25.026617,https://www.ttcx.dot.gov.taipei/cpt/api/TimingPlan/pdf/SG6FR10
IG6H7,SG6H710,和平西一段牯嶺街,GN0040,121.518996,25.026441,https://www.ttcx.dot.gov.taipei/cpt/api/TimingPlan/pdf/SG6H710
IG6J5,SG6J510,和平東一段-師大路,GA0056,121.528519,25.02657,https://www.ttcx.dot.gov.taipei/cpt/api/TimingPlan/pdf/SG6J510
IG6JG,SG6JG10,和平東一段141巷,GA0056,121.530381,25.026418,https://www.ttcx.dot.gov.taipei/cpt/api/TimingPlan/pdf/SG6JG10
IG6M6,SG6M610,"復興南二段148,151巷",GA0076,121.543451,25.026525,https://www.ttcx.dot.gov.taipei/cpt/api/TimingPlan/pdf/SG6M610
IG7DW,SG7DW10,國興路-中華路二段416巷,GA0244,121.503134,25.026775,https://www.ttcx.dot.gov.taipei/cpt/api/TimingPlan/pdf/SG7DW10
IG7EQ,SG7EQ10,中華路二段-南海路,GN0243,121.507077,25.026744,https://www.ttcx.dot.gov.taipei/cpt/api/TimingPlan/pdf/SG7EQ10
IG7GW,SG7GW10,和平西一段-廈門街,GN0040,121.517987,25.026724,https://www.ttcx.dot.gov.taipei/cpt/api/TimingPlan/pdf/SG7GW10
IG7IP,SG7IP10,和平東一段師大大門,GA0056,121.526756,25.026711,https://www.ttcx.dot.gov.taipei/cpt/api/TimingPlan/pdf/SG7IP10
IG7IX,SG7IX10,和平東二段-311巷(國立台北教育大學),GA0270,121.544919,25.024623,https://www.ttcx.dot.gov.taipei/cpt/api/TimingPlan/pdf/SG7IX10
IG7PG,SG7PG10,基隆路二段喬治高職,GC0167,121.555025,25.026518,https://www.ttcx.dot.gov.taipei/cpt/api/TimingPlan/pdf/SG7PG10
IG8BZ,SG8BZ10,西園路二段-寶興街,GA0006,121.493711,25.026879,https://www.ttcx.dot.gov.taipei/cpt/api/TimingPlan/pdf/SG8BZ10
IG8HK,SG8HK10,和平西一段-南昌路二段,GN0040,121.521099,25.026812,https://www.ttcx.dot.gov.taipei/cpt/api/TimingPlan/pdf/SG8HK10
IG8IK,SG8IK10,和平東一段-金山南二段,GA0056,121.525914,25.026786,https://www.ttcx.dot.gov.taipei/cpt/api/TimingPlan/pdf/SG8IK10
IG8LI,SG8LI10,復興南二段148巷開平中學,GC0191,121.540499,25.026707,https://www.ttcx.dot.gov.taipei/cpt/api/TimingPlan/pdf/SG8LI10
IG8N7,SG8N710,敦化南二段--安和路二段171巷,GA0081,121.548777,25.029909,https://www.ttcx.dot.gov.taipei/cpt/api/TimingPlan/pdf/SG8N710
IG8S6,SG8S610,莊敬路-松仁路,GC0074,121.568402,25.02663,https://www.ttcx.dot.gov.taipei/cpt/api/TimingPlan/pdf/SG8S610
IG9FI,SG9FI10,汀州路一段-寧波西街,GN0243,121.510913,25.027046,https://www.ttcx.dot.gov.taipei/cpt/api/TimingPlan/pdf/SG9FI10
IG9HT,SG9HT10,和平東一段--羅斯福二段,GN0040,121.522427,25.027033,https://www.ttcx.dot.gov.taipei/cpt/api/TimingPlan/pdf/SG9HT10
IG9I7,SG9I710,和平東一段41巷,GN0040,121.523913,25.026947,https://www.ttcx.dot.gov.taipei/cpt/api/TimingPlan/pdf/SG9I710
IGAN6,SGAN610,敦化南二段200巷,GS0091,121.54872,25.021522,https://www.ttcx.dot.gov.taipei/cpt/api/TimingPlan/pdf/SGAN610
IGBBW,SGBBW10,艋舺大道-雙園街,GN0008,121.493567,25.030436,https://www.ttcx.dot.gov.taipei/cpt/api/TimingPlan/pdf/SGBBW10
IGBBY,SGBBY10,四維路192巷,GA0275,121.493346,25.02734,https://www.ttcx.dot.gov.taipei/cpt/api/TimingPlan/pdf/SGBBY10
IGBGJ,SGBGJ10,和平西一段-重慶南三段,GS0023,121.515958,25.027246,https://www.ttcx.dot.gov.taipei/cpt/api/TimingPlan/pdf/SGBGJ10
IGBKV,SGBKV10,建國南二段-瑞安街256巷(西),GS0306,121.537614,25.027289,https://www.ttcx.dot.gov.taipei/cpt/api/TimingPlan/pdf/SGBKV10
IGBKW,SGBKW10,建國南二段-瑞安街256巷(東),GS0306,121.53778,25.027277,https://www.ttcx.dot.gov.taipei/cpt/api/TimingPlan/pdf/SGBKW10
IGBRQ,SGBRQ10,莊敬路-莊敬路423巷,GN0291,121.566551,25.02717,https://www.ttcx.dot.gov.taipei/cpt/api/TimingPlan/pdf/SGBRQ10
IGCC8,SGCC810,西園路二段-270號(西園醫院),GA0006,121.494467,25.027517,https://www.ttcx.dot.gov.taipei/cpt/api/TimingPlan/pdf/SGCC810
IGCDF,SGCDF10,萬大路-雙和街,GA0008,121.500482,25.027578,https://www.ttcx.dot.gov.taipei/cpt/api/TimingPlan/pdf/SGCDF10
IGCEE,SGCEE10,西藏路125巷-中華路二段416巷,GA0244,121.505227,25.027445,https://www.ttcx.dot.gov.taipei/cpt/api/TimingPlan/pdf/SGCEE10
IGCM5,SGCM510,"復興南二段125,128巷",GA0076,121.54348,25.027323,https://www.ttcx.dot.gov.taipei/cpt/api/TimingPlan/pdf/SGCM510
IGCPL,SGCPL10,信義路六段-信義路六段15巷,GS0007,121.575333,25.034106,https://www.ttcx.dot.gov.taipei/cpt/api/TimingPlan/pdf/SGCPL10
IGDBV,SGDBV10,寶興街-興義街,GC0213,121.492991,25.027685,https://www.ttcx.dot.gov.taipei/cpt/api/TimingPlan/pdf/SGDBV10
IGDEU,SGDEU10,南海路-惠安街,GN0243,121.507749,25.027644,https://www.ttcx.dot.gov.taipei/cpt/api/TimingPlan/pdf/SGDEU10
IGDGB,SGDGB10,和平西二段-泉州街,GS0023,121.514731,25.027611,https://www.ttcx.dot.gov.taipei/cpt/api/TimingPlan/pdf/SGDGB10
IGEFP,SGEFP10,三元街-230巷,GN0243,121.511887,25.027792,https://www.ttcx.dot.gov.taipei/cpt/api/TimingPlan/pdf/SGEFP10
IGERJ,SGERJ10,莊敬路-莊敬路391巷,GN0291,121.565522,25.027472,https://www.ttcx.dot.gov.taipei/cpt/api/TimingPlan/pdf/SGERJ10
IGFBG,SGFBG10,艋舺大道-西園路二段320巷,GN0009,121.490683,25.027936,https://www.ttcx.dot.gov.taipei/cpt/api/TimingPlan/pdf/SGFBG10
IGFDT,SGFDT10,雙和街-西藏路125巷,GA0244,121.502663,25.027959,https://www.ttcx.dot.gov.taipei/cpt/api/TimingPlan/pdf/SGFDT10
IGFEI,SGFEI10,"中華路二段313,416巷",GN0243,121.505894,25.028002,https://www.ttcx.dot.gov.taipei/cpt/api/TimingPlan/pdf/SGFEI10
IGFFL,SGFFL10,三元街-寧波西街,GN0243,121.511373,25.027966,https://www.ttcx.dot.gov.taipei/cpt/api/TimingPlan/pdf/SGFFL10
IGFKW,SGFKW10,金華街-永康街,GA0264,121.529507,25.029769,https://www.ttcx.dot.gov.taipei/cpt/api/TimingPlan/pdf/SGFKW10
IGFQZ,SGFQZ10,松河街221巷,GC0146,121.563155,25.027706,https://www.ttcx.dot.gov.taipei/cpt/api/TimingPlan/pdf/SGFQZ10
IGGEW,SGGEW10,南海路-詔安街,GN0243,121.508054,25.02804,https://www.ttcx.dot.gov.taipei/cpt/api/TimingPlan/pdf/SGGEW10
IGGFI,SGGFI10,三元街152號,GN0243,121.510977,25.028102,https://www.ttcx.dot.gov.taipei/cpt/api/TimingPlan/pdf/SGGFI10
IGGPQ,SGGPQ10,基隆路二段-基隆路二段159巷,GS0091,121.556059,25.027435,https://www.ttcx.dot.gov.taipei/cpt/api/TimingPlan/pdf/SGGPQ10
IGHCE,SGHCE10,西園路二段-東園街,GS0276,121.495352,25.028264,https://www.ttcx.dot.gov.taipei/cpt/api/TimingPlan/pdf/SGHCE10
IGHDX,SGHDX10,雙和街-中華路二段364巷,GA0244,121.503229,25.028228,https://www.ttcx.dot.gov.taipei/cpt/api/TimingPlan/pdf/SGHDX10
IGHHN,SGHHN10,杭州南二段-羅斯福二段,GN0040,121.521698,25.028038,https://www.ttcx.dot.gov.taipei/cpt/api/TimingPlan/pdf/SGHHN10
IGHMY,SGHMY10,四維路170巷,GC0032,121.548007,25.02816,https://www.ttcx.dot.gov.taipei/cpt/api/TimingPlan/pdf/SGHMY10
IGHN8,SGHN810,敦化南二段81巷,GA0081,121.54875,25.028121,https://www.ttcx.dot.gov.taipei/cpt/api/TimingPlan/pdf/SGHN810
IGHNE,SGHNE10,安和路二段209巷,GN0276,121.549829,25.028027,https://www.ttcx.dot.gov.taipei/cpt/api/TimingPlan/pdf/SGHNE10
IGHNL,SGHNL10,樂利路-安和路二段171巷,GN0276,121.551118,25.028167,https://www.ttcx.dot.gov.taipei/cpt/api/TimingPlan/pdf/SGHNL10
IGHP7,SGHP710,通化街171巷,GA0277,121.553605,25.028067,https://www.ttcx.dot.gov.taipei/cpt/api/TimingPlan/pdf/SGHP710
IGIBQ,SGIBQ10,西藏路-寶興街,GN0009,121.492182,25.028482,https://www.ttcx.dot.gov.taipei/cpt/api/TimingPlan/pdf/SGIBQ10
IGIBX,SGIBX10,西藏路-雙園街40巷,GN0009,121.493371,25.028577,https://www.ttcx.dot.gov.taipei/cpt/api/TimingPlan/pdf/SGIBX10
IGIGV,SGIGV10,福州街-牯嶺街,GN0257,121.517716,25.028278,https://www.ttcx.dot.gov.taipei/cpt/api/TimingPlan/pdf/SGIGV10
IGIKB,SGIKB10,新生南二段-青田街7巷,GA0062,121.534501,25.028263,https://www.ttcx.dot.gov.taipei/cpt/api/TimingPlan/pdf/SGIKB10
IGIM6,SGIM610,復興南二段210巷,GA0076,121.543489,25.028411,https://www.ttcx.dot.gov.taipei/cpt/api/TimingPlan/pdf/SGIM610
IGIML,SGIML10,大安路二段-復興南路二段151巷,GC0097,121.546006,25.028276,https://www.ttcx.dot.gov.taipei/cpt/api/TimingPlan/pdf/SGIML10
IGINW,SGINW10,樂利路11巷-通安街,GA0277,121.552641,25.028286,https://www.ttcx.dot.gov.taipei/cpt/api/TimingPlan/pdf/SGINW10
IGIR7,SGIR710,松智路-莊敬路325巷,GN0301,121.564945,25.029099,https://www.ttcx.dot.gov.taipei/cpt/api/TimingPlan/pdf/SGIR710
IGJAX,SGJAX10,長順街-新四號水門,GA0005,121.488383,25.028678,https://www.ttcx.dot.gov.taipei/cpt/api/TimingPlan/pdf/SGJAX10
IGJAY,SGJAY10,"長順街60,123巷",GA0005,121.488624,25.028677,https://www.ttcx.dot.gov.taipei/cpt/api/TimingPlan/pdf/SGJAY10
IGJLL,SGJLL10,瑞安街180巷,GA0270,121.54121,25.028438,https://www.ttcx.dot.gov.taipei/cpt/api/TimingPlan/pdf/SGJLL10
IGJR9,SGJR910,莊敬路-莊敬路325巷,GN0291,121.563543,25.028003,https://www.ttcx.dot.gov.taipei/cpt/api/TimingPlan/pdf/SGJR910
IGJS9,SGJS910,吳興街-吳興街220巷,GN0291,121.568836,25.028317,https://www.ttcx.dot.gov.taipei/cpt/api/TimingPlan/pdf/SGJS910
IGKBM,SGKBM10,艋舺大道-西藏路,GN0009,121.491766,25.028754,https://www.ttcx.dot.gov.taipei/cpt/api/TimingPlan/pdf/SGKBM10
IGKC8,SGKC810,西藏路-雙園街18巷,GN0009,121.494333,25.0287,https://www.ttcx.dot.gov.taipei/cpt/api/TimingPlan/pdf/SGKC810
IGKCD,SGKCD10,西藏路-雙園街,GS0276,121.495215,25.028806,https://www.ttcx.dot.gov.taipei/cpt/api/TimingPlan/pdf/SGKCD10
IGKCG,SGKCG10,西園路二段-西藏路,GS0276,121.495631,25.028687,https://www.ttcx.dot.gov.taipei/cpt/api/TimingPlan/pdf/SGKCG10
IGKE7,SGKE710,信安街-崇德街,GN0289,121.556805,25.023568,https://www.ttcx.dot.gov.taipei/cpt/api/TimingPlan/pdf/SGKE710
IGKFC,SGKFC10,三元街116號,GN0243,121.50982,25.028711,https://www.ttcx.dot.gov.taipei/cpt/api/TimingPlan/pdf/SGKFC10
IGKIY,SGKIY10,潮州街-麗水街,GA0264,121.52829,25.028556,https://www.ttcx.dot.gov.taipei/cpt/api/TimingPlan/pdf/SGKIY10
IGLIL,SGLIL10,金山南二段-潮州街,GA0055,121.526309,25.02887,https://www.ttcx.dot.gov.taipei/cpt/api/TimingPlan/pdf/SGLIL10
IGLKW,SGLKW10,建國南二段151巷,GS0306,121.537704,25.028757,https://www.ttcx.dot.gov.taipei/cpt/api/TimingPlan/pdf/SGLKW10
IGLLB,SGLLB10,信義路三段134巷-建國南二段151巷,GA0061,121.539369,25.028733,https://www.ttcx.dot.gov.taipei/cpt/api/TimingPlan/pdf/SGLLB10
IGLQZ,SGLQZ10,莊敬路-莊敬路289巷,GN0291,121.563012,25.028664,https://www.ttcx.dot.gov.taipei/cpt/api/TimingPlan/pdf/SGLQZ10
IGMEZ,SGMEZ10,汀州路一段-南海路,GN0243,121.508553,25.028941,https://www.ttcx.dot.gov.taipei/cpt/api/TimingPlan/pdf/SGMEZ10
IGMFQ,SGMFQ10,和平西二段-寧波西街,GC0058,121.512031,25.029038,https://www.ttcx.dot.gov.taipei/cpt/api/TimingPlan/pdf/SGMFQ10
IGMH7,SGMH710,福州街-南昌路二段,GN0257,121.518868,25.02896,https://www.ttcx.dot.gov.taipei/cpt/api/TimingPlan/pdf/SGMH710
IGNE7,SGNE710,汀州路三段101號(中華福音),GA0265,121.529014,25.017278,https://www.ttcx.dot.gov.taipei/cpt/api/TimingPlan/pdf/SGNE710
IGNEB,SGNEB10,"中華路二段303,364巷",GN0243,121.504798,25.02918,https://www.ttcx.dot.gov.taipei/cpt/api/TimingPlan/pdf/SGNEB10
IGNNK,SGNNK10,安和路二段-樂利路,GN0276,121.550795,25.029016,https://www.ttcx.dot.gov.taipei/cpt/api/TimingPlan/pdf/SGNNK10
IGNPT,SGNPT10,基隆路二段-嘉興街216巷,GS0091,121.557256,25.029164,https://www.ttcx.dot.gov.taipei/cpt/api/TimingPlan/pdf/SGNPT10
IGNR6,SGNR610,莊敬路239巷-松平路(信義國小),GC0051,121.563127,25.03018,https://www.ttcx.dot.gov.taipei/cpt/api/TimingPlan/pdf/SGNR610
IGNS6,SGNS610,松仁路275巷,GC0074,121.568323,25.02896,https://www.ttcx.dot.gov.taipei/cpt/api/TimingPlan/pdf/SGNS610
IGPD7,SGPD710,西藏路萬華國中,GC0073,121.499181,25.029343,https://www.ttcx.dot.gov.taipei/cpt/api/TimingPlan/pdf/SGPD710
IGPI8,SGPI810,潮州街59巷,GC0066,121.524032,25.029231,https://www.ttcx.dot.gov.taipei/cpt/api/TimingPlan/pdf/SGPI810
IGPML,SGPML10,大安路二段-建安國小,GC0097,121.546009,25.029142,https://www.ttcx.dot.gov.taipei/cpt/api/TimingPlan/pdf/SGPML10
IGQDF,SGQDF10,萬大路-西藏路,GC0137,121.500538,25.029393,https://www.ttcx.dot.gov.taipei/cpt/api/TimingPlan/pdf/SGQDF10
IGQQR,SGQQR10,吳興街156巷,GN0291,121.561854,25.029273,https://www.ttcx.dot.gov.taipei/cpt/api/TimingPlan/pdf/SGQQR10
IGQQS,SGQQS10,松平路-吳興街,GN0289,121.561904,25.029246,https://www.ttcx.dot.gov.taipei/cpt/api/TimingPlan/pdf/SGQQS10
IGRB8,SGRB810,環河南二段-西藏路南側,GA0005,121.489402,25.029656,https://www.ttcx.dot.gov.taipei/cpt/api/TimingPlan/pdf/SGRB810
IGRF6,SGRF610,南海路-三元街,GN0243,121.508912,25.029509,https://www.ttcx.dot.gov.taipei/cpt/api/TimingPlan/pdf/SGRF610
IGRG8,SGRG810,寧波西街-泉州街,GS0023,121.514204,25.029545,https://www.ttcx.dot.gov.taipei/cpt/api/TimingPlan/pdf/SGRG810
IGRHR,SGRHR10,杭州南二段-潮州街,GN0261,121.522002,25.029536,https://www.ttcx.dot.gov.taipei/cpt/api/TimingPlan/pdf/SGRHR10
IGSDR,SGSDR10,西藏路125巷,GN0006,121.502303,25.029694,https://www.ttcx.dot.gov.taipei/cpt/api/TimingPlan/pdf/SGSDR10
IGSGF,SGSGF10,重慶南二段-寧波西街,GS0023,121.515285,25.029776,https://www.ttcx.dot.gov.taipei/cpt/api/TimingPlan/pdf/SGSGF10
IGTHG,SGTHG10,羅斯福一段-福州街,GN0040,121.520388,25.029839,https://www.ttcx.dot.gov.taipei/cpt/api/TimingPlan/pdf/SGTHG10
IGTHP,SGTHP10,南海路-泉州街,GC0203,121.51362,25.031723,https://www.ttcx.dot.gov.taipei/cpt/api/TimingPlan/pdf/SGTHP10
IGTJ5,SGTJ510,金華街-麗水街,GA0264,121.528504,25.029865,https://www.ttcx.dot.gov.taipei/cpt/api/TimingPlan/pdf/SGTJ510
IGTNQ,SGTNQ10,安和路二段--敦化南路二段81巷,GN0287,121.551611,25.029745,https://www.ttcx.dot.gov.taipei/cpt/api/TimingPlan/pdf/SGTNQ10
IGTPW,SGTPW10,基隆路二段-光復南路,GS0041,121.557396,25.029389,https://www.ttcx.dot.gov.taipei/cpt/api/TimingPlan/pdf/SGTPW10
IGTQU,SGTQU10,莊敬路239巷,GN0291,121.562262,25.029551,https://www.ttcx.dot.gov.taipei/cpt/api/TimingPlan/pdf/SGTQU10
IGUCK,SGUCK10,西園路二段140巷,GA0006,121.49632,25.030111,https://www.ttcx.dot.gov.taipei/cpt/api/TimingPlan/pdf/SGUCK10
IGUEI,SGUEI10,中華路二段-西藏路,GN0006,121.504118,25.029995,https://www.ttcx.dot.gov.taipei/cpt/api/TimingPlan/pdf/SGUEI10
IGUGM,SGUGM10,寧波西街-牯嶺街,GN0257,121.516415,25.030043,https://www.ttcx.dot.gov.taipei/cpt/api/TimingPlan/pdf/SGUGM10
IGUJN,SGUJN10,金華街164巷,GA0264,121.531516,25.029962,https://www.ttcx.dot.gov.taipei/cpt/api/TimingPlan/pdf/SGUJN10
IGUNI,SGUNI10,敦化南二段81巷45弄,GA0081,121.550452,25.029921,https://www.ttcx.dot.gov.taipei/cpt/api/TimingPlan/pdf/SGUNI10
IGVEC,SGVEC10,西藏路-中華路二段315巷5弄(忠義國小),GN0006,121.504981,25.030154,https://www.ttcx.dot.gov.taipei/cpt/api/TimingPlan/pdf/SGVEC10
IGVIN,SGVIN10,金山南二段-金華街,GA0055,121.526583,25.03017,https://www.ttcx.dot.gov.taipei/cpt/api/TimingPlan/pdf/SGVIN10
IGVJR,SGVJR10,金華街-青田街,GA0264,121.532082,25.030132,https://www.ttcx.dot.gov.taipei/cpt/api/TimingPlan/pdf/SGVJR10
IGWBB,SGWBB10,環河南二段-西藏路,GA0005,121.4899,25.030403,https://www.ttcx.dot.gov.taipei/cpt/api/TimingPlan/pdf/SGWBB10
IGWDF,SGWDF10,萬大路85巷,GN0006,121.500522,25.030287,https://www.ttcx.dot.gov.taipei/cpt/api/TimingPlan/pdf/SGWDF10
IGWEI,SGWEI10,西藏路-惠安街,GN0511,121.505883,25.030386,https://www.ttcx.dot.gov.taipei/cpt/api/TimingPlan/pdf/SGWEI10
IGWPA,SGWPA10,臨江街-通化街,GA0277,121.554219,25.030195,https://www.ttcx.dot.gov.taipei/cpt/api/TimingPlan/pdf/SGWPA10
IGXF8,SGXF810,和平西二段-南海路,GC0172,121.509164,25.030546,https://www.ttcx.dot.gov.taipei/cpt/api/TimingPlan/pdf/SGXF810
IGYER,SGYER10,汀州路一段-西藏路,GN0243,121.507212,25.030643,https://www.ttcx.dot.gov.taipei/cpt/api/TimingPlan/pdf/SGYER10
IGYK6,SGYK610,新生南二段-金華街,GA0062,121.533669,25.030623,https://www.ttcx.dot.gov.taipei/cpt/api/TimingPlan/pdf/SGYK610
IGYRI,SGYRI10,松智路-松平路,GN0290,121.565358,25.030479,https://www.ttcx.dot.gov.taipei/cpt/api/TimingPlan/pdf/SGYRI10
IGYS6,SGYS610,松仁路-松平路,GS0003,121.56831,25.030413,https://www.ttcx.dot.gov.taipei/cpt/api/TimingPlan/pdf/SGYS610
IGYS7,SGYS710,松仁路-信義國中,GS0003,121.568318,25.029953,https://www.ttcx.dot.gov.taipei/cpt/api/TimingPlan/pdf/SGYS710
IGZGU,SGZGU10,南昌路一段-寧波西街,GN0257,121.517578,25.030716,https://www.ttcx.dot.gov.taipei/cpt/api/TimingPlan/pdf/SGZGU10
IH5FI,SH5FI10,南海路58號(國語實小),GC0160,121.51085,25.030983,https://www.ttcx.dot.gov.taipei/cpt/api/TimingPlan/pdf/SH5FI10
IH5KW,SH5KW10,建國南二段79巷,GA0061,121.537783,25.030861,https://www.ttcx.dot.gov.taipei/cpt/api/TimingPlan/pdf/SH5KW10
IH5SQ,SH5SQ10,LCS信義支線3+860(象山隧道入口)-出城1,GS1410,121.571478,25.030774,https://www.ttcx.dot.gov.taipei/cpt/api/TimingPlan/pdf/SH5SQ10
IH5SS,SH5SS10,LCS信義支線3+920(象山隧道出口)-進城5,GS1050,121.571884,25.030714,https://www.ttcx.dot.gov.taipei/cpt/api/TimingPlan/pdf/SH5SS10
IH6CN,SH6CN10,西園路二段-莒光路,GA0006,121.49679,25.03104,https://www.ttcx.dot.gov.taipei/cpt/api/TimingPlan/pdf/SH6CN10
IH6D6,SH6D610,莒光路雙園國小,GC0073,121.499128,25.031113,https://www.ttcx.dot.gov.taipei/cpt/api/TimingPlan/pdf/SH6D610
IH6DG,SH6DG10,萬大路-莒光路,GC0137,121.500585,25.031153,https://www.ttcx.dot.gov.taipei/cpt/api/TimingPlan/pdf/SH6DG10
IH6KW,SH6KW10,建國南二段-勝利加油站,GA0061,121.537793,25.030996,https://www.ttcx.dot.gov.taipei/cpt/api/TimingPlan/pdf/SH6KW10
IH6ML,SH6ML10,大安路二段-瑞安街23巷,GC0009,121.546067,25.030993,https://www.ttcx.dot.gov.taipei/cpt/api/TimingPlan/pdf/SH6ML10
IH6N7,SH6N710,敦化南二段63巷,GA0081,121.548772,25.030947,https://www.ttcx.dot.gov.taipei/cpt/api/TimingPlan/pdf/SH6N710
IH6NG,SH6NG10,敦化南二段63巷-21弄,GA0081,121.550151,25.030917,https://www.ttcx.dot.gov.taipei/cpt/api/TimingPlan/pdf/SH6NG10
IH6NJ,SH6NJ10,敦化南二段63巷-53弄,GA0081,121.550755,25.030933,https://www.ttcx.dot.gov.taipei/cpt/api/TimingPlan/pdf/SH6NJ10
IH6NV,SH6NV10,"安和路二段52,59巷",GN0276,121.552409,25.030924,https://www.ttcx.dot.gov.taipei/cpt/api/TimingPlan/pdf/SH6NV10
IH7DQ,SH7DQ10,莒光路183巷,GN0006,121.50226,25.031211,https://www.ttcx.dot.gov.taipei/cpt/api/TimingPlan/pdf/SH7DQ10
IH7E7,SH7E710,中華路二段-莒光路,GN0006,121.504123,25.03125,https://www.ttcx.dot.gov.taipei/cpt/api/TimingPlan/pdf/SH7E710
IH7EN,SH7EN10,汀州路一段-莒光路,GN0243,121.506759,25.031232,https://www.ttcx.dot.gov.taipei/cpt/api/TimingPlan/pdf/SH7EN10
IH7EV,SH7EV10,和平西二段-莒光路,GA0016,121.507889,25.031219,https://www.ttcx.dot.gov.taipei/cpt/api/TimingPlan/pdf/SH7EV10
IH7LB,SH7LB10,信義路三段134巷-建國南二段69巷,GA0061,121.539429,25.031153,https://www.ttcx.dot.gov.taipei/cpt/api/TimingPlan/pdf/SH7LB10
IH7M6,SH7M610,復興南二段78巷,GA0076,121.543551,25.031065,https://www.ttcx.dot.gov.taipei/cpt/api/TimingPlan/pdf/SH7M610
IH8FR,SH8FR10,南海路56號(建國中學),GC0160,121.51216,25.031312,https://www.ttcx.dot.gov.taipei/cpt/api/TimingPlan/pdf/SH8FR10
IH8J7,SH8J710,愛國東路-麗水街,GA0264,121.528787,25.031371,https://www.ttcx.dot.gov.taipei/cpt/api/TimingPlan/pdf/SH8J710
IH9CB,SH9CB10,艋舺大道-西園路二段140巷,GN0008,121.494939,25.031642,https://www.ttcx.dot.gov.taipei/cpt/api/TimingPlan/pdf/SH9CB10
IH9H8,SH9H810,羅斯福一段-寧波西街,GN0040,121.519078,25.031604,https://www.ttcx.dot.gov.taipei/cpt/api/TimingPlan/pdf/SH9H810
IHAIQ,SHAIQ10,金山南二段-愛國東路,GA0055,121.526847,25.031667,https://www.ttcx.dot.gov.taipei/cpt/api/TimingPlan/pdf/SHAIQ10
IHANV,SHANV10,安和路二段-文昌街,GN0090,121.552432,25.031701,https://www.ttcx.dot.gov.taipei/cpt/api/TimingPlan/pdf/SHANV10
IHBGA,SHBGA10,重慶南二段-南海路,GS0023,121.514412,25.031891,https://www.ttcx.dot.gov.taipei/cpt/api/TimingPlan/pdf/SHBGA10
IHBIH,SHBIH10,愛國東路中華電信,GC0129,121.525579,25.031843,https://www.ttcx.dot.gov.taipei/cpt/api/TimingPlan/pdf/SHBIH10
IHCBK,SHCBK10,環河南二段-長順街,GC0041,121.491413,25.032041,https://www.ttcx.dot.gov.taipei/cpt/api/TimingPlan/pdf/SHCBK10
IHCBL,SHCBL10,環河南二段-雙園街,GA0005,121.491413,25.032032,https://www.ttcx.dot.gov.taipei/cpt/api/TimingPlan/pdf/SHCBL10
IHCCR,SHCCR10,西園路二段50巷,GA0006,121.497339,25.032022,https://www.ttcx.dot.gov.taipei/cpt/api/TimingPlan/pdf/SHCCR10
IHCEQ,SHCEQ10,和平西二段-延平南路,GA0016,121.507,25.031953,https://www.ttcx.dot.gov.taipei/cpt/api/TimingPlan/pdf/SHCEQ10
IHCHD,SHCHD10,寧波東街-金華街,GN0261,121.519773,25.032017,https://www.ttcx.dot.gov.taipei/cpt/api/TimingPlan/pdf/SHCHD10
IHDI8,SHDI810,"愛國東路21,210巷",GC0129,121.524024,25.032074,https://www.ttcx.dot.gov.taipei/cpt/api/TimingPlan/pdf/SHDI810
IHDKV,SHDKV10,建國南二段-信義南側迴轉道(西),GA0061,121.537709,25.032021,https://www.ttcx.dot.gov.taipei/cpt/api/TimingPlan/pdf/SHDKV10
IHDKW,SHDKW10,建國南二段-信義南側迴轉道(東),GA0061,121.537861,25.032032,https://www.ttcx.dot.gov.taipei/cpt/api/TimingPlan/pdf/SHDKW10
IHDQ9,SHDQ910,基隆路二段-吳興街,GC0092,121.558973,25.03201,https://www.ttcx.dot.gov.taipei/cpt/api/TimingPlan/pdf/SHDQ910
IHDQX,SHDQX10,松勤路信義國小,GC0051,121.562709,25.032014,https://www.ttcx.dot.gov.taipei/cpt/api/TimingPlan/pdf/SHDQX10
IHDRI,SHDRI10,松智路-松勤路,GN0290,121.565384,25.03195,https://www.ttcx.dot.gov.taipei/cpt/api/TimingPlan/pdf/SHDRI10
IHDS6,SHDS610,松仁路-松勤路,GS0003,121.568297,25.031876,https://www.ttcx.dot.gov.taipei/cpt/api/TimingPlan/pdf/SHDS610
IHEDF,SHEDF10,萬大路-興寧街,GN0008,121.50054,25.032255,https://www.ttcx.dot.gov.taipei/cpt/api/TimingPlan/pdf/SHEDF10
IHEMY,SHEMY10,四維路154巷,GC0047,121.548014,25.032105,https://www.ttcx.dot.gov.taipei/cpt/api/TimingPlan/pdf/SHEMY10
IHENP,SHENP10,信義路四段186巷-安和路二段20巷,GC0025,121.551574,25.032625,https://www.ttcx.dot.gov.taipei/cpt/api/TimingPlan/pdf/SHENP10
IHEPV,SHEPV10,光復南路-文昌街,GC0092,121.557448,25.032115,https://www.ttcx.dot.gov.taipei/cpt/api/TimingPlan/pdf/SHEPV10
IHEQM,SHEQM10,莊敬路-松勤路,GC0092,121.561054,25.032039,https://www.ttcx.dot.gov.taipei/cpt/api/TimingPlan/pdf/SHEQM10
IHFEB,SHFEB10,中華路二段-大埔街,GN0008,121.504771,25.032258,https://www.ttcx.dot.gov.taipei/cpt/api/TimingPlan/pdf/SHFEB10
IHFGL,SHFGL10,南海路-南昌路一段,GN0257,121.516346,25.03239,https://www.ttcx.dot.gov.taipei/cpt/api/TimingPlan/pdf/SHFGL10
IHFHU,SHFHU10,杭州南二段-愛國東路,GN0261,121.522529,25.032314,https://www.ttcx.dot.gov.taipei/cpt/api/TimingPlan/pdf/SHFHU10
IHFHV,SHFHV10,杭州南二段-金華街,GN0261,121.522275,25.030862,https://www.ttcx.dot.gov.taipei/cpt/api/TimingPlan/pdf/SHFHV10
IHGPB,SHGPB10,通化街-文昌街,GN0090,121.554265,25.032415,https://www.ttcx.dot.gov.taipei/cpt/api/TimingPlan/pdf/SHGPB10
IHGUG,SHGUG10,信義路五段91巷-松勇路53巷,GC0027,121.571738,25.034201,https://www.ttcx.dot.gov.taipei/cpt/api/TimingPlan/pdf/SHGUG10
IHHCU,SHHCU10,西園路一段-艋舺大道,GN0008,121.497947,25.033067,https://www.ttcx.dot.gov.taipei/cpt/api/TimingPlan/pdf/SHHCU10
IHHDF,SHHDF10,艋舺大道-萬大路,GN0008,121.500523,25.032815,https://www.ttcx.dot.gov.taipei/cpt/api/TimingPlan/pdf/SHHDF10
IHHDG,SHHDG10,康定路287巷,GA0004,121.500522,25.03258,https://www.ttcx.dot.gov.taipei/cpt/api/TimingPlan/pdf/SHHDG10
IHHEF,SHHEF10,中華路二段-和平西二段,GN0008,121.505301,25.033403,https://www.ttcx.dot.gov.taipei/cpt/api/TimingPlan/pdf/SHHEF10
IHHHN,SHHHN10,愛國東路106號(大孝門),GN0261,121.52157,25.032742,https://www.ttcx.dot.gov.taipei/cpt/api/TimingPlan/pdf/SHHHN10
IHHNU,SHHNU10,文昌街-信義路四段186巷,GC0096,121.552456,25.032603,https://www.ttcx.dot.gov.taipei/cpt/api/TimingPlan/pdf/SHHNU10
IHIBQ,SHIBQ10,"環河南二段175,250巷",GA0005,121.49214,25.032861,https://www.ttcx.dot.gov.taipei/cpt/api/TimingPlan/pdf/SHIBQ10
IHIGX,SHIGX10,羅斯福一段-南海路,GN0040,121.518132,25.032908,https://www.ttcx.dot.gov.taipei/cpt/api/TimingPlan/pdf/SHIGX10
IHJCM,SHJCM10,艋舺大道-336巷(中國時報),GN0008,121.496699,25.033107,https://www.ttcx.dot.gov.taipei/cpt/api/TimingPlan/pdf/SHJCM10
IHJDR,SHJDR10,汀州路一段-大埔街,GN0008,121.502278,25.033143,https://www.ttcx.dot.gov.taipei/cpt/api/TimingPlan/pdf/SHJDR10
IHJED,SHJED10,中華路二段-汀州路一段,GN0008,121.505092,25.033016,https://www.ttcx.dot.gov.taipei/cpt/api/TimingPlan/pdf/SHJED10
IHJRJ,SHJRJ10,信義路五段-松智路,GN0290,121.565399,25.032889,https://www.ttcx.dot.gov.taipei/cpt/api/TimingPlan/pdf/SHJRJ10
IHJS6,SHJS610,信義路五段-松仁路,GS0003,121.568292,25.032824,https://www.ttcx.dot.gov.taipei/cpt/api/TimingPlan/pdf/SHJS610
IHJUA,SHJUA10,松山路650巷15弄-永春高中,GC0104,121.579003,25.032764,https://www.ttcx.dot.gov.taipei/cpt/api/TimingPlan/pdf/SHJUA10
IHKEB,SHKEB10,艋舺大道120巷,GN0008,121.504706,25.033198,https://www.ttcx.dot.gov.taipei/cpt/api/TimingPlan/pdf/SHKEB10
IHKPV,SHKPV10,信義路四段-光復南路,GC0092,121.557472,25.033063,https://www.ttcx.dot.gov.taipei/cpt/api/TimingPlan/pdf/SHKPV10
IHKQD,SHKQD10,信義路四段-基隆路二段,GC0092,121.559573,25.033019,https://www.ttcx.dot.gov.taipei/cpt/api/TimingPlan/pdf/SHKQD10
IHKQP,SHKQP10,信義路五段-莊敬路,GC0092,121.561346,25.032967,https://www.ttcx.dot.gov.taipei/cpt/api/TimingPlan/pdf/SHKQP10
IHKTE,SHKTE10,"松德路-虎林街164,202巷",GA0292,121.574585,25.032953,https://www.ttcx.dot.gov.taipei/cpt/api/TimingPlan/pdf/SHKTE10
IHL6D,SHL6D10,南深路-37號(山水綠公園),GA0308,121.622313,25.034826,https://www.ttcx.dot.gov.taipei/cpt/api/TimingPlan/pdf/SHL6D10
IHLFF,SHLFF10,和平西三段59巷,GA0004,121.502197,25.0352,https://www.ttcx.dot.gov.taipei/cpt/api/TimingPlan/pdf/SHLFF10
IHLHG,SHLHG10,愛國東路-寧波東街,GN0261,121.520462,25.03327,https://www.ttcx.dot.gov.taipei/cpt/api/TimingPlan/pdf/SHLHG10
IHLM8,SHLM810,復興南二段-瑞安街,GA0076,121.543515,25.029802,https://www.ttcx.dot.gov.taipei/cpt/api/TimingPlan/pdf/SHLM810
IHLN7,SHLN710,信義路四段-敦化南一段,GA0081,121.548802,25.033249,https://www.ttcx.dot.gov.taipei/cpt/api/TimingPlan/pdf/SHLN710
IHLNP,SHLNP10,信義路四段186巷,GN0090,121.551597,25.033192,https://www.ttcx.dot.gov.taipei/cpt/api/TimingPlan/pdf/SHLNP10
IHLNV,SHLNV10,信義路四段-安和路一段,GN0090,121.552468,25.033172,https://www.ttcx.dot.gov.taipei/cpt/api/TimingPlan/pdf/SHLNV10
IHLP5,SHLP510,文昌街-通安街,GN0090,121.553366,25.033147,https://www.ttcx.dot.gov.taipei/cpt/api/TimingPlan/pdf/SHLP510
IHLPB,SHLPB10,信義路四段-通化街,GN0090,121.554282,25.033138,https://www.ttcx.dot.gov.taipei/cpt/api/TimingPlan/pdf/SHLPB10
IHMIR,SHMIR10,金山南二段-31巷,GA0052,121.527161,25.033472,https://www.ttcx.dot.gov.taipei/cpt/api/TimingPlan/pdf/SHMIR10
IHMKV,SHMKV10,信義路三段-建國南一段(西),GA0040,121.53769,25.033456,https://www.ttcx.dot.gov.taipei/cpt/api/TimingPlan/pdf/SHMKV10
IHMKW,SHMKW10,信義路三段-建國南一段(東),GA0040,121.537804,25.033479,https://www.ttcx.dot.gov.taipei/cpt/api/TimingPlan/pdf/SHMKW10
IHMLB,SHMLB10,信義路三段134巷,GA0061,121.539469,25.033446,https://www.ttcx.dot.gov.taipei/cpt/api/TimingPlan/pdf/SHMLB10
IHMLQ,SHMLQ10,信義路三段166巷,GN0075,121.541896,25.033392,https://www.ttcx.dot.gov.taipei/cpt/api/TimingPlan/pdf/SHMLQ10
IHMM6,SHMM610,信義路三段-復興南一段,GN0075,121.54359,25.033358,https://www.ttcx.dot.gov.taipei/cpt/api/TimingPlan/pdf/SHMM610
IHMML,SHMML10,信義路四段-大安路,GN0075,121.545959,25.033314,https://www.ttcx.dot.gov.taipei/cpt/api/TimingPlan/pdf/SHMML10
IHNET,SHNET10,延平南路-中華路二段75巷-,GA0247,121.507454,25.033956,https://www.ttcx.dot.gov.taipei/cpt/api/TimingPlan/pdf/SHNET10
IHNH7,SHNH710,愛國東路-79巷,GA0055,121.518947,25.033618,https://www.ttcx.dot.gov.taipei/cpt/api/TimingPlan/pdf/SHNH710
IHNJV,SHNJV10,信義路二段-新生南一段,GA0060,121.532731,25.033569,https://www.ttcx.dot.gov.taipei/cpt/api/TimingPlan/pdf/SHNJV10
IHPBV,SHPBV10,環河南二段49巷,GA0005,121.493065,25.033878,https://www.ttcx.dot.gov.taipei/cpt/api/TimingPlan/pdf/SHPBV10
IHPEB,SHPEB10,和平西二段-艋舺大道,GN0008,121.504857,25.033775,https://www.ttcx.dot.gov.taipei/cpt/api/TimingPlan/pdf/SHPEB10
IHPJE,SHPJE10,信義路二段-永康街,GA0060,121.529967,25.033697,https://www.ttcx.dot.gov.taipei/cpt/api/TimingPlan/pdf/SHPJE10
IHPPV,SHPPV10,光復南路-基隆路一段380巷,GA0029,121.557513,25.03363,https://www.ttcx.dot.gov.taipei/cpt/api/TimingPlan/pdf/SHPPV10
IHPSR,SHPSR10,信義路五段91巷15弄,GC0027,121.571738,25.033574,https://www.ttcx.dot.gov.taipei/cpt/api/TimingPlan/pdf/SHPSR10
IHPTD,SHPTD10,信義路六段-松德路,GS0007,121.574607,25.033585,https://www.ttcx.dot.gov.taipei/cpt/api/TimingPlan/pdf/SHPTD10
IHS48,SHS4810,研究院三段68巷,GC0028,121.613304,25.033863,https://www.ttcx.dot.gov.taipei/cpt/api/TimingPlan/pdf/SHS4810
IHSH5,SHSH510,愛國東路40號(國家兩廳院),GS0004,121.518563,25.034125,https://www.ttcx.dot.gov.taipei/cpt/api/TimingPlan/pdf/SHSH510
IHSIP,SHSIP10,信義路三段43號,GA0061,121.526759,25.034259,https://www.ttcx.dot.gov.taipei/cpt/api/TimingPlan/pdf/SHSIP10
IHTD5,SHTD510,西園路一段-大理街,GA0004,121.498765,25.034391,https://www.ttcx.dot.gov.taipei/cpt/api/TimingPlan/pdf/SHTD510
IHTE7,SHTE710,和平西三段30巷,GA0004,121.504156,25.034373,https://www.ttcx.dot.gov.taipei/cpt/api/TimingPlan/pdf/SHTE710
IHTEH,SHTEH10,中華路二段-艋舺大道,GN0008,121.505771,25.034359,https://www.ttcx.dot.gov.taipei/cpt/api/TimingPlan/pdf/SHTEH10
IHTFV,SHTFV10,重慶南二段6巷,GS0023,121.512866,25.034361,https://www.ttcx.dot.gov.taipei/cpt/api/TimingPlan/pdf/SHTFV10
IHTMY,SHTMY10,四維路76巷(單閃),GA0275,121.548073,25.034218,https://www.ttcx.dot.gov.taipei/cpt/api/TimingPlan/pdf/SHTMY10
IHUDJ,SHUDJ10,康定路-大理街,GA0004,121.501127,25.034621,https://www.ttcx.dot.gov.taipei/cpt/api/TimingPlan/pdf/SHUDJ10
IHUKW,SHUKW10,建國南一段341巷,GA0061,121.537818,25.0344,https://www.ttcx.dot.gov.taipei/cpt/api/TimingPlan/pdf/SHUKW10
IHVKW,SHVKW10,建國南一段-新生南一段161巷,GA0061,121.53781,25.034914,https://www.ttcx.dot.gov.taipei/cpt/api/TimingPlan/pdf/SHVKW10
IHW4D,SHW4D10,研究院三段中華學院,GC0028,121.614031,25.034483,https://www.ttcx.dot.gov.taipei/cpt/api/TimingPlan/pdf/SHW4D10
IHWGD,SHWGD10,中山南路-愛國東路,GN0040,121.516465,25.034882,https://www.ttcx.dot.gov.taipei/cpt/api/TimingPlan/pdf/SHWGD10
IHWT7,SHWT710,松德路200巷180巷,GS0117,121.573507,25.034679,https://www.ttcx.dot.gov.taipei/cpt/api/TimingPlan/pdf/SHWT710
IHWTE,SHWTE10,交控中心機房測試用-3,GS0998,121.574392,25.031961,https://www.ttcx.dot.gov.taipei/cpt/api/TimingPlan/pdf/SHWTE10
IHX4E,SHX4E10,研究院三段20巷,GC0028,121.614368,25.034617,https://www.ttcx.dot.gov.taipei/cpt/api/TimingPlan/pdf/SHX4E10
IHXC6,SHXC610,和平西三段-環南快(南),GA0004,121.494061,25.03503,https://www.ttcx.dot.gov.taipei/cpt/api/TimingPlan/pdf/SHXC610
IHXGD,SHXGD10,愛國西路-公園路,GN0862,121.51494,25.034977,https://www.ttcx.dot.gov.taipei/cpt/api/TimingPlan/pdf/SHXGD10
IHXS6,SHXS610,松仁路-松仁路121巷,GS0003,121.568331,25.034792,https://www.ttcx.dot.gov.taipei/cpt/api/TimingPlan/pdf/SHXS610
IHXTE,SHXTE10,工程隊機房測試用-1,GS0999,121.574383,25.03215,https://www.ttcx.dot.gov.taipei/cpt/api/TimingPlan/pdf/SHXTE10
IHYDY,SHYDY10,和平西三段-南寧路,GS0274,121.503416,25.035143,https://www.ttcx.dot.gov.taipei/cpt/api/TimingPlan/pdf/SHYDY10
IHYFT,SHYFT10,重慶南一段-愛國西路,GS0023,121.512464,25.035284,https://www.ttcx.dot.gov.taipei/cpt/api/TimingPlan/pdf/SHYFT10
IHYTE,SHYTE10,交控中心機房測試用-4,GS0998,121.574552,25.032276,https://www.ttcx.dot.gov.taipei/cpt/api/TimingPlan/pdf/SHYTE10
IHZC8,SHZC810,和平西三段-環河南二段,GA0004,121.494409,25.035408,https://www.ttcx.dot.gov.taipei/cpt/api/TimingPlan/pdf/SHZC810
IHZCC,SHZCC10,萬青街-萬大路277巷(單閃),GA0008,121.501077,25.025301,https://www.ttcx.dot.gov.taipei/cpt/api/TimingPlan/pdf/SHZCC10
IHZCS,SHZCS10,和平西三段-梧州街,GA0004,121.49758,25.035307,https://www.ttcx.dot.gov.taipei/cpt/api/TimingPlan/pdf/SHZCS10
IHZD8,SHZD810,和平西三段-西園路一段,GA0004,121.499314,25.035256,https://www.ttcx.dot.gov.taipei/cpt/api/TimingPlan/pdf/SHZD810
IHZDJ,SHZDJ10,和平西三段-康定路,GA0004,121.501226,25.035205,https://www.ttcx.dot.gov.taipei/cpt/api/TimingPlan/pdf/SHZDJ10
IHZM6,SHZM610,復興南一段295巷,GN0075,121.543624,25.035122,https://www.ttcx.dot.gov.taipei/cpt/api/TimingPlan/pdf/SHZM610
IHZPL,SHZPL10,延吉街-光復南路456巷,GA0086,121.555965,25.035091,https://www.ttcx.dot.gov.taipei/cpt/api/TimingPlan/pdf/SHZPL10
